Fuel Type Code,Station Name,Street Address,Intersection Directions,City,State,ZIP,Plus4,Station Phone,Status Code,Expected Date,Groups With Access Code,Access Days Time,Cards Accepted,BD Blends,NG Fill Type Code,NG PSI,EV Level1 EVSE Num,EV Level2 EVSE Num,EV DC Fast Count,EV Other Info,EV Network,EV Network Web,Geocode Status,Latitude,Longitude,Date Last Confirmed,ID,Distance,Updated At,Owner Type Code,Federal Agency ID,Federal Agency Name,Open Date,Hydrogen Status Link,NG Vehicle Class,LPG Primary,E85 Blender Pump,EV Connector Types,Country,Distance (km),Intersection Directions (French),Access Days Time (French),BD Blends (French),Groups With Access Code (French),Hydrogen Is Retail,Access Code,Access Detail Code,Federal Agency Code,Facility Type,CNG Dispenser Num,CNG On-Site Renewable Source,CNG Total Compression Capacity,CNG Storage Capacity,LNG On-Site Renewable Source,E85 Other Ethanol Blends,EV Pricing,EV Pricing (French),LPG Nozzle Types,Hydrogen Pressures,Hydrogen Standards,CNG Fill Type Code,CNG PSI,CNG Vehicle Class,LNG Vehicle Class,EV On-Site Renewable Source
ELEC,ATLANTA FALCONS TRINITY AVE,104 Trinity Ave SW,,Atlanta,GA,30303,,888-758-4389,E,,Public,24 hours daily,,,,,,2,,,ChargePoint Network,http://www.chargepoint.com/,GPS,33.748333,-84.391339,2021-02-18,161694,0.01748,2021-02-18 00:21:44 UTC,,,,,,,,,J1772,US,0.02813,,,,Public,,public,,,,,,,,,,,,,,,,,,,
ELEC,GOVERNMENT GOVT CENTER EV,200 Central Ave SW,,Atlanta,GA,30303,,888-758-4389,E,,Public,24 hours daily,,,,,,2,,,ChargePoint Network,http://www.chargepoint.com/,GPS,33.747541,-84.39115,2021-02-18,161769,0.07224,2021-02-18 00:21:44 UTC,,,,,,,,,J1772,US,0.11626,,,,Public,,public,,,,,,,,,,,,,,,,,,,
ELEC,ATLANTA FALCONS MITCHELL ST,68 Mitchell St SW,,Atlanta,GA,30303,,888-758-4389,E,,Public,24 hours daily,,,,,,2,,,ChargePoint Network,http://www.chargepoint.com/,GPS,33.749238,-84.390067,2021-02-18,161729,0.09536,2021-02-18 00:21:44 UTC,,,,,,,,,J1772,US,0.15347,,,,Public,,public,,,,,,,,,,,,,,,,,,,
ELEC,GEORGIA BUILD GBA 02,216 Capitol Avenue SW,,Atlanta,GA,30334,,888-758-4389,E,,Public,24 hours daily,,,,,,2,,,ChargePoint Network,http://www.chargepoint.com/,GPS,33.747665,-84.387242,2021-02-18,161799,0.25269,2021-02-18 00:21:44 UTC,,,,,,,,,J1772,US,0.40667,,,,Public,,public,,,,,,,,,,,,,,,,,,,
ELEC,GEORGIA STATE GSU-G DECK EV1,52 Courtland St SE,,Atlanta,GA,30303,,888-758-4389,E,,Public,24 hours daily,,,,,,2,,,ChargePoint Network,http://www.chargepoint.com/,GPS,33.752152,-84.387547,2021-02-18,171984,0.33702,2021-02-18 00:21:44 UTC,,,,,,,,,J1772,US,0.54238,,,,Public,,public,,,,,,,,,,,,,,,,,,,
ELEC,GEORGIA STATE G DECK EV2,52 Courtland St SE,,Atlanta,GA,30303,,888-758-4389,E,,Public,24 hours daily,,,,,,2,,,ChargePoint Network,http://www.chargepoint.com/,GPS,33.751991,-84.387318,2021-02-18,62062,0.33818,2021-02-18 00:21:44 UTC,,,,,,,,,J1772,US,0.54425,,,,Public,,public,,,,,,,,,,,,,,,,,,,
ELEC,GEORGIA STATE G DECK EV1,52 Courtland St SE,,Atlanta,GA,30303,,888-758-4389,E,,Public,24 hours daily,,,,,,2,,,ChargePoint Network,http://www.chargepoint.com/,GPS,33.751969,-84.387289,2021-02-18,171983,0.33831,2021-02-18 00:21:44 UTC,,,,,,,,,J1772,US,0.54446,,,,Public,,public,,,,,,,,,,,,,,,,,,,
ELEC,Environmental Protection Agency,61 Forsyth St NW,,Atlanta,GA,30303,,,E,,Private,Fleet use only,,,,,,1,,,Non-Networked,,GPS,33.753606,-84.394258,2021-02-16,98671,0.38308,2021-02-16 22:45:56 UTC,FG,20,U.S. Environmental Protection Agency,2018-04-01,,,,,J1772,US,0.61651,,,,Privé,,private,,EPA,FED_GOV,,,,,,,,,,,,,,,,
ELEC,EPA Atlanta,75 Ted Turner Dr NW,,Atlanta,GA,30303,,,E,,Private - Government only,,,,,,,1,,,Non-Networked,,GPS,33.753606,-84.394258,,184310,0.38308,2021-02-11 18:30:11 UTC,FG,20,U.S. Environmental Protection Agency,2021-01-15,,,,,J1772,US,0.61651,,,,Privé - Réservé au gouvernement,,private,GOVERNMENT,EPA,FED_GOV,,,,,,,Free,,,,,,,,,
ELEC,SNAFC 1 EPA_SNAFC_1,61 Forsyth St SW,,Atlanta,GA,30303,,888-758-4389,E,,Public,24 hours daily,,,,,,1,,,ChargePoint Network,http://www.chargepoint.com/,GPS,33.754284,-84.393607,2021-02-18,161781,0.41356,2021-02-18 00:21:44 UTC,,,,,,,,,J1772,US,0.66556,,,,Public,,public,,,,,,,,,,,,,,,,,,,
ELEC,CAPITOL GATEWAY CAPITOL EV1,89 Woodward Ave SE,,Atlanta,GA,30312,,888-758-4389,E,,Public,24 hours daily,,,,,,1,,,ChargePoint Network,http://www.chargepoint.com/,GPS,33.745064,-84.384104,2021-02-18,86943,0.48893,2021-02-18 00:21:44 UTC,,,,,,,,,J1772,US,0.78686,,,,Public,,public,,,,,,,,,,,,,,,,,,,
ELEC,IBEW 613 Bldg,"501 Pulliam Street Southwest
Suite 250",,Atlanta,GA,30312,,800-663-5633,E,,Public,MO: Not Specified; TU: Not Specified; WE: Not Specified; TH: Not Specified; FR: Not Specified; SA: Not Specified; SU: Not Specified,,,,,,4,,,SemaCharge Network,https://semaconnect.com/,GPS,33.7412423,-84.3926822,2021-02-18,155450,0.50801,2021-02-18 00:13:37 UTC,,,,,,,,,J1772,US,0.81756,,,,Public,,public,,,,,,,,,,$0.00-$1.00/Hr Variable Parking Fee,,,,,,,,,
ELEC,GEORGIA STATE GSU-M DECK 2,Piedmont Ave SE,,Atlanta,GA,30303,,888-758-4389,E,,Public,24 hours daily,,,,,,1,,,ChargePoint Network,http://www.chargepoint.com/,GPS,33.753323,-84.383877,2021-02-18,161790,0.54869,2021-02-18 00:21:44 UTC,,,,,,,,,J1772,US,0.88303,,,,Public,,public,,,,,,,,,,,,,,,,,,,
ELEC,GEORGIA STATE GSU-M DECK,11-33 Auditorium Pl SE,,Atlanta,GA,30303,,888-758-4389,E,,Public,24 hours daily,,,,,,1,,,ChargePoint Network,http://www.chargepoint.com/,GPS,33.753387,-84.383819,2021-02-18,161771,0.55401,2021-02-18 00:21:44 UTC,,,,,,,,,J1772,US,0.89159,,,,Public,,public,,,,,,,,,,,,,,,,,,,
ELEC,100 Peachtree Building,"100 Peachtree Street NW, Suite 1810",,Atlanta,GA,30303,,800-663-5633,E,,Public,MO: 06:00am-06:00pm; TU: 06:00am-06:00pm; WE: 06:00am-06:00pm; TH: 06:00am-06:00pm; FR: 06:00am-06:00pm; SA: 08:00am-02:00pm; SU: Closed,,,,,,2,,,SemaCharge Network,https://semaconnect.com/,GPS,33.7562708,-84.3885226,2021-02-18,148731,0.55929,2021-02-18 00:13:37 UTC,,,,,,,,,J1772,US,0.90009,,,,Public,,public,,,,,,,,,,$0.50-$4.00/Hr Variable Parking Fee,,,,,,,,,
ELEC,TURNER PROPERTI CNN CENTER U1,Centennial Olympic Park Dr NW,,Atlanta,GA,30303,,888-758-4389,E,,Public,24 hours daily,,,,,,2,,,ChargePoint Network,http://www.chargepoint.com/,GPS,33.756115,-84.39534,2021-02-18,161796,0.56647,2021-02-18 00:21:44 UTC,,,,,,,,,J1772,US,0.91165,,,,Public,,public,,,,,,,,,,,,,,,,,,,
ELEC,TURNER PROPERTI CNN CENTER U2,Centennial Olympic Park Dr NW,,Atlanta,GA,30303,,888-758-4389,E,,Public,24 hours daily,,,,,,2,,,ChargePoint Network,http://www.chargepoint.com/,GPS,33.75615,-84.395293,2021-02-18,179916,0.56764,2021-02-18 00:21:44 UTC,,,,,,,,,J1772,US,0.91353,,,,Public,,public,,,,,,,,,,,,,,,,,,,
ELEC,TURNER PROPERTI CNN CENTER U3,Centennial Olympic Park Dr NW,,Atlanta,GA,30303,,888-758-4389,E,,Public,24 hours daily,,,,,,2,,,ChargePoint Network,http://www.chargepoint.com/,GPS,33.75618,-84.39524,2021-02-18,179918,0.56839,2021-02-18 00:21:44 UTC,,,,,,,,,J1772,US,0.91474,,,,Public,,public,,,,,,,,,,,,,,,,,,,
ELEC,TURNER PROPERTI CNN CENTER L1,Centennial Olympic Park Dr NW,,Atlanta,GA,30303,,888-758-4389,E,,Public,24 hours daily,,,,,,2,,,ChargePoint Network,http://www.chargepoint.com/,GPS,33.756149,-84.395371,2021-02-18,179917,0.56932,2021-02-18 00:21:44 UTC,,,,,,,,,J1772,US,0.91623,,,,Public,,public,,,,,,,,,,,,,,,,,,,
ELEC,TURNER PROPERTI CNN CENTER L2,Centennial Olympic Park Dr NW,,Atlanta,GA,30303,,888-758-4389,E,,Public,24 hours daily,,,,,,2,,,ChargePoint Network,http://www.chargepoint.com/,GPS,33.75618,-84.395315,2021-02-18,179919,0.57004,2021-02-18 00:21:44 UTC,,,,,,,,,J1772,US,0.91739,,,,Public,,public,,,,,,,,,,,,,,,,,,,
ELEC,GWCC GWCC MB NGW 20,290 M.L.K. Jr Dr SW,,Atlanta,GA,30303,,888-758-4389,E,,Public,24 hours daily,,,,,,2,,,ChargePoint Network,http://www.chargepoint.com/,GPS,33.7549,-84.397973,2021-02-18,184178,0.5749,2021-02-18 00:21:44 UTC,,,,,,,,,J1772,US,0.92521,,,,Public,,public,,,,,,,,,,,,,,,,,,,
ELEC,GWCC GWCC MB NGW 19,290 M.L.K. Jr Dr SW,,Atlanta,GA,30303,,888-758-4389,E,,Public,24 hours daily,,,,,,2,,,ChargePoint Network,http://www.chargepoint.com/,GPS,33.754915,-84.397992,2021-02-18,184176,0.5764,2021-02-18 00:21:44 UTC,,,,,,,,,J1772,US,0.92763,,,,Public,,public,,,,,,,,,,,,,,,,,,,
ELEC,GEORGIA STATE GSU LAW,85 Park Pl NE,,Atlanta,GA,30303,,888-758-4389,E,,Public,24 hours daily,,,,,,2,,,ChargePoint Network,http://www.chargepoint.com/,GPS,33.756625,-84.387178,2021-02-18,161709,0.60987,2021-02-18 00:21:44 UTC,,,,,,,,,J1772,US,0.98149,,,,Public,,public,,,,,,,,,,,,,,,,,,,
ELEC,GWCC DCFC1,Mangum St SW,,Atlanta,GA,30303,,888-758-4389,E,,Public,24 hours daily,,,,,,,1,,ChargePoint Network,http://www.chargepoint.com/,GPS,33.755564,-84.398581,2021-02-18,172602,0.63244,2021-02-18 00:21:44 UTC,,,,,,,,,CHADEMO J1772COMBO,US,1.01781,,,,Public,,public,,,,,,,,,,,,,,,,,,,
ELEC,GWCC DCFC2,Mangum St SW,,Atlanta,GA,30303,,888-758-4389,E,,Public,24 hours daily,,,,,,,1,,ChargePoint Network,http://www.chargepoint.com/,GPS,33.755561,-84.398595,2021-02-18,172603,0.6328,2021-02-18 00:21:44 UTC,,,,,,,,,CHADEMO J1772COMBO,US,1.01839,,,,Public,,public,,,,,,,,,,,,,,,,,,,
ELEC,GWCC GWCC MBS NGW1,Mangum St SW,,Atlanta,GA,30303,,888-758-4389,E,,Public,24 hours daily,,,,,,2,,,ChargePoint Network,http://www.chargepoint.com/,GPS,33.755579,-84.398597,2021-02-18,172608,0.63383,2021-02-18 00:21:44 UTC,,,,,,,,,J1772,US,1.02005,,,,Public,,public,,,,,,,,,,,,,,,,,,,
ELEC,GWCC GWCC MB NGW 5,Mangum St SW,,Atlanta,GA,30303,,888-758-4389,E,,Public,24 hours daily,,,,,,2,,,ChargePoint Network,http://www.chargepoint.com/,GPS,33.755575,-84.39861,2021-02-18,172600,0.6341,2021-02-18 00:21:44 UTC,,,,,,,,,J1772,US,1.02049,,,,Public,,public,,,,,,,,,,,,,,,,,,,
ELEC,GWCC GWCC MBS NGW2,Mangum St SW,,Atlanta,GA,30303,,888-758-4389,E,,Public,24 hours daily,,,,,,2,,,ChargePoint Network,http://www.chargepoint.com/,GPS,33.755595,-84.398616,2021-02-18,172601,0.63538,2021-02-18 00:21:44 UTC,,,,,,,,,J1772,US,1.02254,,,,Public,,public,,,,,,,,,,,,,,,,,,,
ELEC,GWCC GWCC MB NGW 6,Mangum St SW,,Atlanta,GA,30303,,888-758-4389,E,,Public,24 hours daily,,,,,,2,,,ChargePoint Network,http://www.chargepoint.com/,GPS,33.755594,-84.398629,2021-02-18,172606,0.63581,2021-02-18 00:21:44 UTC,,,,,,,,,J1772,US,1.02324,,,,Public,,public,,,,,,,,,,,,,,,,,,,
ELEC,GWCC GWCC MBS GW,Mangum St SW,,Atlanta,GA,30303,,888-758-4389,E,,Public,24 hours daily,,,,,,2,,,ChargePoint Network,http://www.chargepoint.com/,GPS,33.755612,-84.398635,2021-02-18,172604,0.63698,2021-02-18 00:21:44 UTC,,,,,,,,,J1772,US,1.02512,,,,Public,,public,,,,,,,,,,,,,,,,,,,
ELEC,GWCC GWCC MB GW 2,Mangum St SW,,Atlanta,GA,30303,,888-758-4389,E,,Public,24 hours daily,,,,,,2,,,ChargePoint Network,http://www.chargepoint.com/,GPS,33.755608,-84.398648,2021-02-18,172605,0.63725,2021-02-18 00:21:44 UTC,,,,,,,,,J1772,US,1.02555,,,,Public,,public,,,,,,,,,,,,,,,,,,,
ELEC,GWCC GWCC MBS NGW3,Mangum St SW,,Atlanta,GA,30303,,888-758-4389,E,,Public,24 hours daily,,,,,,2,,,ChargePoint Network,http://www.chargepoint.com/,GPS,33.755626,-84.39865,2021-02-18,172607,0.63827,2021-02-18 00:21:44 UTC,,,,,,,,,J1772,US,1.0272,,,,Public,,public,,,,,,,,,,,,,,,,,,,
ELEC,GWCC GWCC MB NGW 7,Mangum St SW,,Atlanta,GA,30303,,888-758-4389,E,,Public,24 hours daily,,,,,,2,,,ChargePoint Network,http://www.chargepoint.com/,GPS,33.755623,-84.398661,2021-02-18,172599,0.63852,2021-02-18 00:21:44 UTC,,,,,,,,,J1772,US,1.0276,,,,Public,,public,,,,,,,,,,,,,,,,,,,
ELEC,GWCC GWCC MBS NGW4,Mangum St SW,,Atlanta,GA,30303,,888-758-4389,E,,Public,24 hours daily,,,,,,2,,,ChargePoint Network,http://www.chargepoint.com/,GPS,33.755643,-84.398666,2021-02-18,172598,0.63976,2021-02-18 00:21:44 UTC,,,,,,,,,J1772,US,1.02959,,,,Public,,public,,,,,,,,,,,,,,,,,,,
ELEC,GWCC GWCC MB NGW 8,Mangum St SW,,Atlanta,GA,30303,,888-758-4389,E,,Public,24 hours daily,,,,,,2,,,ChargePoint Network,http://www.chargepoint.com/,GPS,33.755638,-84.398674,2021-02-18,70512,0.63979,2021-02-18 00:21:44 UTC,,,,,,,,,J1772,US,1.02964,,,,Public,,public,,,,,,,,,,,,,,,,,,,
ELEC,GWCC GWCC 2,285 Andrew Young International Blvd,,Atlanta,GA,30313,,888-758-4389,E,,Public,24 hours daily,,,,,,2,,,ChargePoint Network,http://www.chargepoint.com/,GPS,33.756865,-84.397691,2021-02-18,161705,0.67499,2021-02-18 00:21:44 UTC,,,,,,,,,J1772,US,1.08629,,,,Public,,public,,,,,,,,,,,,,,,,,,,
ELEC,GWCC GWCC,285 Andrew Young International Blvd,,Atlanta,GA,30313,,888-758-4389,E,,Public,24 hours daily,,,,,,2,,,ChargePoint Network,http://www.chargepoint.com/,GPS,33.756935,-84.397675,2021-02-18,179875,0.67861,2021-02-18 00:21:44 UTC,,,,,,,,,J1772,US,1.09212,,,,Public,,public,,,,,,,,,,,,,,,,,,,
ELEC,CHOA HUGHES SPALDING,Jesse Hill Jr Dr SE @ Coca Cola Pl,,Atlanta,GA,30313,,888-758-4389,E,,Public,24 hours daily,,,,,,2,,,ChargePoint Network,http://www.chargepoint.com/,GPS,33.753597,-84.381125,2021-02-18,104794,0.69142,2021-02-18 00:21:44 UTC,,,,,,,,,J1772,US,1.11273,,,,Public,,public,,,,,,,,,,,,,,,,,,,
ELEC,GEORGIA STATE GSU-W LOT,100 Auburn Ave,,Atlanta,GA,30312,,888-758-4389,E,,Public,24 hours daily,,,,,,1,,,ChargePoint Network,http://www.chargepoint.com/,GPS,33.756423,-84.383817,2021-02-18,161770,0.70029,2021-02-18 00:21:44 UTC,,,,,,,,,J1772,US,1.12701,,,,Public,,public,,,,,,,,,,,,,,,,,,,
ELEC,The Turner Building,133 Luckie Street NW,,Atlanta,GA,30303,,800-663-5633,E,,Public,MO: 12:00am-12:00am; TU: 12:00am-12:00am; WE: 12:00am-12:00am; TH: 12:00am-12:00am; FR: 12:00am-12:00am; SA: 12:00am-12:00am; SU: 12:00am-12:00am,,,,,,3,,,SemaCharge Network,https://semaconnect.com/,GPS,33.758814,-84.39053,2021-02-18,148729,0.70982,2021-02-18 00:13:37 UTC,,,,,,,,,J1772,US,1.14234,,,,Public,,public,,,,,,,,,,FREE,,,,,,,,,
ELEC,"The Ritz-Carlton, Atlanta - Tesla Destination",181 Peachtree St NE,,Atlanta,GA,30303,,404-659-0400  877-798-3752,E,,Public,24 hours daily; for customer use only; see valet for access,,,,,,8,,,Tesla Destination,https://www.tesla.com/destination-charging,200-9,33.758583,-84.387149,2020-11-03,113978,0.73569,2020-11-18 00:06:10 UTC,P,,,2016-12-15,,,,,J1772 TESLA,US,1.18398,,,,Public,,public,,,HOTEL,,,,,,,Free,,,,,,,,,
ELEC,GWCC GWCC MB NGW 10,300 Andrew Young International Blvd NW,,Atlanta,GA,30303,,888-758-4389,E,,Public,24 hours daily,,,,,,2,,,ChargePoint Network,http://www.chargepoint.com/,GPS,33.757167,-84.39981,2021-02-18,182047,0.76271,2021-02-18 00:21:44 UTC,,,,,,,,,J1772,US,1.22746,,,,Public,,public,,,,,,,,,,,,,,,,,,,
ELEC,GWCC GWCC MB NGW 12,300 Andrew Young International Blvd NW,,Atlanta,GA,30303,,888-758-4389,E,,Public,24 hours daily,,,,,,2,,,ChargePoint Network,http://www.chargepoint.com/,GPS,33.757171,-84.399827,2021-02-18,170446,0.76354,2021-02-18 00:21:44 UTC,,,,,,,,,J1772,US,1.2288,,,,Public,,public,,,,,,,,,,,,,,,,,,,
ELEC,GWCC GWCC MB NGW 13,300 Andrew Young International Blvd NW,,Atlanta,GA,30303,,888-758-4389,E,,Public,24 hours daily,,,,,,2,,,ChargePoint Network,http://www.chargepoint.com/,GPS,33.75722,-84.399773,2021-02-18,183714,0.76423,2021-02-18 00:21:44 UTC,,,,,,,,,J1772,US,1.22991,,,,Public,,public,,,,,,,,,,,,,,,,,,,
ELEC,GWCC GWCC MB NGW 11,300 Andrew Young International Blvd NW,,Atlanta,GA,30303,,888-758-4389,E,,Public,24 hours daily,,,,,,2,,,ChargePoint Network,http://www.chargepoint.com/,GPS,33.757104,-84.399966,2021-02-18,182046,0.76502,2021-02-18 00:21:44 UTC,,,,,,,,,J1772,US,1.23118,,,,Public,,public,,,,,,,,,,,,,,,,,,,
ELEC,GWCC GWCC MB NGW 9,300 Andrew Young International Blvd NW,,Atlanta,GA,30303,,888-758-4389,E,,Public,24 hours daily,,,,,,2,,,ChargePoint Network,http://www.chargepoint.com/,GPS,33.757345,-84.399751,2021-02-18,182048,0.7702,2021-02-18 00:21:44 UTC,,,,,,,,,J1772,US,1.23952,,,,Public,,public,,,,,,,,,,,,,,,,,,,
ELEC,The Westin Peachtree Plaza - Tesla Destination,210 Peachtree St,,Atlanta,GA,30303,,404-659-1400  877-798-3752,E,,Public,24 hours daily; for customer use only; see valet for access,,,,,,3,,,Tesla Destination,https://www.tesla.com/destination-charging,200-9,33.759425,-84.38837,2020-11-03,113980,0.7711,2020-11-18 00:06:10 UTC,P,,,2015-12-01,,,,,J1772 TESLA,US,1.24097,,,,Public,,public,,,HOTEL,,,,,,,Free,,,,,,,,,
ELEC,GWCC GWCC MB NGW 18,300 Andrew Young International Blvd NW,,Atlanta,GA,30303,,888-758-4389,E,,Public,24 hours daily,,,,,,2,,,ChargePoint Network,http://www.chargepoint.com/,GPS,33.757292,-84.399923,2021-02-18,182049,0.7735,2021-02-18 00:21:44 UTC,,,,,,,,,J1772,US,1.24483,,,,Public,,public,,,,,,,,,,,,,,,,,,,
ELEC,GWCC GWCC MB NGW 14,300 Andrew Young International Blvd NW,,Atlanta,GA,30303,,888-758-4389,E,,Public,24 hours daily,,,,,,2,,,ChargePoint Network,http://www.chargepoint.com/,GPS,33.75735,-84.399859,2021-02-18,182053,0.77432,2021-02-18 00:21:44 UTC,,,,,,,,,J1772,US,1.24615,,,,Public,,public,,,,,,,,,,,,,,,,,,,
ELEC,GWCC GWCC MB NGW 16,300 Andrew Young International Blvd NW,,Atlanta,GA,30303,,888-758-4389,E,,Public,24 hours daily,,,,,,2,,,ChargePoint Network,http://www.chargepoint.com/,GPS,33.757238,-84.400041,2021-02-18,182051,0.7749,2021-02-18 00:21:44 UTC,,,,,,,,,J1772,US,1.24708,,,,Public,,public,,,,,,,,,,,,,,,,,,,
ELEC,GWCC GWCC MB NGW 17,300 Andrew Young International Blvd NW,,Atlanta,GA,30303,,888-758-4389,E,,Public,24 hours daily,,,,,,2,,,ChargePoint Network,http://www.chargepoint.com/,GPS,33.757354,-84.399912,2021-02-18,182050,0.77644,2021-02-18 00:21:44 UTC,,,,,,,,,J1772,US,1.24956,,,,Public,,public,,,,,,,,,,,,,,,,,,,
ELEC,GWCC GWCC MB NGW 15,300 Andrew Young International Blvd NW,,Atlanta,GA,30303,,888-758-4389,E,,Public,24 hours daily,,,,,,2,,,ChargePoint Network,http://www.chargepoint.com/,GPS,33.757546,-84.399934,2021-02-18,182052,0.78761,2021-02-18 00:21:44 UTC,,,,,,,,,J1772,US,1.26754,,,,Public,,public,,,,,,,,,,,,,,,,,,,
ELEC,161 PEACHTREE STATION 3,161 Peachtree Center Ave NE,,Atlanta,GA,30303,,888-758-4389,E,,Public,24 hours daily,,,,,,2,,,ChargePoint Network,http://www.chargepoint.com/,GPS,33.759394,-84.385494,2021-02-18,179867,0.82372,2021-02-18 00:21:44 UTC,,,,,,,,,J1772,US,1.32565,,,,Public,,public,,,,,,,,,,,,,,,,,,,
ELEC,161 PEACHTREE STATION 1,161 Peachtree Center Ave NE,,Atlanta,GA,30303,,888-758-4389,E,,Public,24 hours daily,,,,,,2,,,ChargePoint Network,http://www.chargepoint.com/,GPS,33.759447,-84.385629,2021-02-18,161693,0.82382,2021-02-18 00:21:44 UTC,,,,,,,,,J1772,US,1.32581,,,,Public,,public,,,,,,,,,,,,,,,,,,,
ELEC,Sheraton Hotel,165 Courtland St NE,"Located on left side of the parking garage, see valet",Atlanta,GA,30303,,404-659-6500,E,,Public,Garage business hours; pay lot; see valet for access,,,,,1,1,,,Non-Networked,,200-8,33.75886,-84.384194,2020-11-09,62519,0.82597,2020-11-12 18:53:31 UTC,P,,,2014-01-12,,,,,J1772 NEMA520,US,1.32927,,,,Public,,public,,,HOTEL,,,,,,,Free,,,,,,,,,
ELEC,161 PEACHTREE STATION 2,161 Peachtree Center Ave NE,,Atlanta,GA,30303,,888-758-4389,E,,Public,24 hours daily,,,,,,2,,,ChargePoint Network,http://www.chargepoint.com/,GPS,33.75953,-84.385717,2021-02-18,179868,0.82699,2021-02-18 00:21:44 UTC,,,,,,,,,J1772,US,1.33091,,,,Public,,public,,,,,,,,,,,,,,,,,,,
ELEC,ATLANTA FALCONS CFHOF,250 Marietta St NW,,Atlanta,GA,30313,,888-758-4389,E,,Public,24 hours daily,,,,,,2,,,ChargePoint Network,http://www.chargepoint.com/,GPS,33.760464,-84.3956,2021-02-18,161749,0.85455,2021-02-18 00:21:44 UTC,,,,,,,,,J1772,US,1.37526,,,,Public,,public,,,,,,,,,,,,,,,,,,,
ELEC,GSU HOUSING EVS UNIV COMMONS 2,141 Piedmont Ave NE,,Atlanta,GA,30303,,888-758-4389,E,,Public,24 hours daily,,,,,,1,,,ChargePoint Network,http://www.chargepoint.com/,GPS,33.757551,-84.381217,2021-02-18,78599,0.85773,2021-02-18 00:21:44 UTC,,,,,,,,,J1772,US,1.38038,,,,Public,,public,,,,,,,,,,,,,,,,,,,
ELEC,GSU HOUSING EVS UNIV COMMONS 1,Piedmont Ave NE,,Atlanta,GA,30303,,888-758-4389,E,,Public,24 hours daily,,,,,,2,,,ChargePoint Network,http://www.chargepoint.com/,GPS,33.757569,-84.381199,2021-02-18,78607,0.85934,2021-02-18 00:21:44 UTC,,,,,,,,,J1772,US,1.38297,,,,Public,,public,,,,,,,,,,,,,,,,,,,
ELEC,250WILLIAMS STATION 1,250 Williams St NW,,Atlanta,GA,30303,,888-758-4389,E,,Public,24 hours daily,,,,,,2,,,ChargePoint Network,http://www.chargepoint.com/,GPS,33.761611,-84.391309,2021-02-18,161779,0.90046,2021-02-18 00:21:44 UTC,,,,,,,,,J1772,US,1.44915,,,,Public,,public,,,,,,,,,,,,,,,,,,,
ELEC,Ventanas,275 Baker Street,,Atlanta,GA,30313,,888-998-2546,E,,Public,MON: 24 hours | TUE: 24 hours | WED: 24 hours | THU: 24 hours | FRI: 24 hours | SAT: 24 hours | SUN: 24 hours,,,,,,1,,,Blink Network,http://www.blinkcharging.com/,GPS,33.761432,-84.3968,2021-02-17,96261,0.93897,2021-02-17 22:55:17 UTC,,,,,,,,,J1772,US,1.51113,,,,Public,,public,,,,,,,,,,Level 2: $0.03 per 30 seconds,,,,,,,,,
ELEC,ATLANTA FALCONS CONGRESS CENTER,164 Northside Dr NW,,Atlanta,GA,30314,,888-758-4389,E,,Public,24 hours daily,,,,,,2,,,ChargePoint Network,http://www.chargepoint.com/,GPS,33.758949,-84.402328,2021-02-18,161751,0.94996,2021-02-18 00:21:44 UTC,,,,,,,,,J1772,US,1.52881,,,,Public,,public,,,,,,,,,,,,,,,,,,,
ELEC,Centennial Park District Public Parking - 9th Level - Tesla Destination,275 Baker St,,Atlanta,GA,30313,,404-658-1877  877-798-3752,E,,Public,24 hours daily,,,,,,3,,,Tesla Destination,https://www.tesla.com/destination-charging,200-9,33.761971,-84.395708,2020-11-03,113981,0.95636,2020-11-18 00:06:10 UTC,P,,,2016-12-15,,,,,TESLA,US,1.53911,,,,Public,,public,,,PARKING_GARAGE,,,,,,,Free,,,,,,,,,
ELEC,GSU HOUSING EVS PIEDMONT NORTH,175 Piedmont Ave.,,Atlanta,GA,30303,,888-758-4389,E,,Public,24 hours daily,,,,,,2,,,ChargePoint Network,http://www.chargepoint.com/,GPS,33.759038,-84.380579,2021-02-18,78606,0.95825,2021-02-18 00:21:44 UTC,,,,,,,,,J1772,US,1.54215,,,,Public,,public,,,,,,,,,,,,,,,,,,,
ELEC,Hilton Garden Inn - Parking Garage,275 Baker St,Located on 9th level,Atlanta,GA,30313,,404-577-2001,E,,Public,24 hours daily; see valet for access,,,,,,2,,,Non-Networked,,GPS,33.76202,-84.3962,2020-11-09,49168,0.96716,2020-11-09 16:53:32 UTC,P,,,2012-08-14,,,,,J1772,US,1.55649,,,,Public,,public,,,HOTEL,,,,,,,Free,,,,,,,,,
ELEC,Aloft Atlanta Downtown Hotel - Tesla Destination,300 Spring St NW,,Atlanta,GA,30308,,678-515-0300  877-798-3752,E,,Public,24 hours daily; for customer use only; see valet for access,,,,,,3,,,Tesla Destination,https://www.tesla.com/destination-charging,200-9,33.762526,-84.389615,2020-11-03,113983,0.96956,2020-11-18 00:06:10 UTC,P,,,2016-05-01,,,,,J1772 TESLA,US,1.56036,,,,Public,,public,,,HOTEL,,,,,,,Free,,,,,,,,,
ELEC,GA. AQUARIUM BELUGA WHALE,225 Baker St NW,,Atlanta,GA,30313,,888-758-4389,E,,Public,24 hours daily,,,,,,2,,,ChargePoint Network,http://www.chargepoint.com/,GPS,33.763473,-84.395283,2021-02-18,172219,1.05149,2021-02-18 00:21:44 UTC,,,,,,,,,J1772,US,1.69221,,,,Public,,public,,,,,,,,,,,,,,,,,,,
ELEC,GA. AQUARIUM SEA LION,225 Baker St NW,,Atlanta,GA,30313,,888-758-4389,E,,Public,24 hours daily,,,,,,2,,,ChargePoint Network,http://www.chargepoint.com/,GPS,33.763493,-84.395365,2021-02-18,78219,1.05383,2021-02-18 00:21:44 UTC,,,,,,,,,J1772,US,1.69597,,,,Public,,public,,,,,,,,,,,,,,,,,,,
ELEC,GA. AQUARIUM PENGUIN,225 Baker St NW,,Atlanta,GA,30313,,888-758-4389,E,,Public,24 hours daily,,,,,,2,,,ChargePoint Network,http://www.chargepoint.com/,GPS,33.763497,-84.395414,2021-02-18,172220,1.0547,2021-02-18 00:21:44 UTC,,,,,,,,,J1772,US,1.69738,,,,Public,,public,,,,,,,,,,,,,,,,,,,
ELEC,GA. AQUARIUM MANTA RAY,225 Baker St NW,,Atlanta,GA,30313,,888-758-4389,E,,Public,24 hours daily,,,,,,2,,,ChargePoint Network,http://www.chargepoint.com/,GPS,33.763485,-84.395518,2021-02-18,172218,1.05519,2021-02-18 00:21:44 UTC,,,,,,,,,J1772,US,1.69816,,,,Public,,public,,,,,,,,,,,,,,,,,,,
ELEC,GA. AQUARIUM WHALE SHARK,225 Baker Street NW,,Atlanta,GA,30313,,888-758-4389,E,,Public,24 hours daily,,,,,,2,,,ChargePoint Network,http://www.chargepoint.com/,GPS,33.763976,-84.395483,2021-02-18,172217,1.0878,2021-02-18 00:21:44 UTC,,,,,,,,,J1772,US,1.75064,,,,Public,,public,,,,,,,,,,,,,,,,,,,
ELEC,WOCC COCA-COLA UNIT #1,126 Ivan Allen Jr Blvd,,Atlanta,GA,30313,,888-758-4389,E,,Public,24 hours daily,,,,,,2,,,ChargePoint Network,http://www.chargepoint.com/,GPS,33.764345,-84.393964,2021-02-18,161784,1.098,2021-02-18 00:21:44 UTC,,,,,,,,,J1772,US,1.76706,,,,Public,,public,,,,,,,,,,,,,,,,,,,
ELEC,Georgia Power Employee Garage - Tesla Destination,30 Ivan Allen Jr Blvd NW,,Atlanta,GA,30308,,877-798-3752  877-798-3752,E,,Public,24 hours daily; for customer use only; see front desk for access,,,,,,3,,,Tesla Destination,https://www.tesla.com/destination-charging,200-9,33.764331,-84.388251,2020-11-03,168791,1.10383,2020-11-18 00:06:10 UTC,P,,,2020-11-03,,,,,TESLA,US,1.77644,,,,Public,,public,,,,,,,,,,Free,,,,,,,,,
ELEC,Southern Company HQ 2,30 Ivan Allen Junior Blvd NE,,Atlanta,GA,30308,,855-900-7584,E,,Public,24 hours daily,,,,,,,1,,Greenlots,http://greenlots.com/,GPS,33.764791,-84.387518,2021-02-18,99683,1.14281,2021-02-18 01:07:33 UTC,,,,,,,,,CHADEMO J1772COMBO,US,1.83917,,,,Public,,public,,,,,,,,,,,,,,,,,,,
ELEC,Springhill Suites Atlanta Downtown - Tesla Destination,239 Ivan Allen Jr Blvd NW,,Atlanta,GA,30313,,678-539-2900  877-798-3752,E,,Public,24 hours daily; for customer use only,,,,,,2,,,Tesla Destination,https://www.tesla.com/destination-charging,200-9,33.764998,-84.394956,2020-11-03,122427,1.15113,2020-11-18 00:06:10 UTC,P,,,2019-03-01,,,,,TESLA,US,1.85256,,,,Public,,public,,,,,,,,,,Free,,,,,,,,,
ELEC,Georgia Power Main Office - Tesla Destination,241 Ralph McGill Blvd,,Atlanta,GA,30308,,877-798-3752  877-798-3752,E,,Public,24 hours daily; for customer use only; see front desk for access,,,,,,10,,,Tesla Destination,https://www.tesla.com/destination-charging,200-9,33.763442,-84.381067,2020-11-03,168793,1.18943,2020-11-18 00:06:10 UTC,P,,,2020-11-03,,,,,TESLA,US,1.9142,,,,Public,,public,,,,,,,,,,Free,,,,,,,,,
ELEC,GEORGIA POWER GPC CORP HQ2 L2,241 Ralph McGill Blvd NE,,Atlanta,GA,30308,,888-758-4389,E,,Public,24 hours daily,,,,,,2,,,ChargePoint Network,http://www.chargepoint.com/,GPS,33.763981,-84.380076,2021-02-18,78489,1.25068,2021-02-18 00:21:44 UTC,,,,,,,,,J1772,US,2.01277,,,,Public,,public,,,,,,,,,,,,,,,,,,,
ELEC,GEORGIA POWER GPC CORP HQ1 L2,241 Ralph McGill Blvd NE,,Atlanta,GA,30308,,888-758-4389,E,,Public,24 hours daily,,,,,,2,,,ChargePoint Network,http://www.chargepoint.com/,GPS,33.763953,-84.38002,2021-02-18,172223,1.25074,2021-02-18 00:21:44 UTC,,,,,,,,,J1772,US,2.01287,,,,Public,,public,,,,,,,,,,,,,,,,,,,
ELEC,ARKOFSALVATION EV STATION 01,344 Pavillion St SE,,Atlanta,GA,30315,,888-758-4389,E,,Public,24 hours daily,,,,,,2,,,ChargePoint Network,http://www.chargepoint.com/,GPS,33.735702,-84.376095,2021-02-18,105534,1.25328,2021-02-18 00:21:44 UTC,,,,,,,,,J1772,US,2.01696,,,,Public,,public,,,,,,,,,,,,,,,,,,,
ELEC,METRO DC GPC CORP DC,241 Ralph McGill Blvd,,Atlanta,GA,30308,,888-758-4389,E,,Public,24 hours daily,,,,,,,1,,ChargePoint Network,http://www.chargepoint.com/,GPS,33.76396,-84.379645,2021-02-18,69609,1.26269,2021-02-18 00:21:44 UTC,,,,,,,,,CHADEMO J1772COMBO,US,2.0321,,,,Public,,public,,,,,,,,,,,,,,,,,,,
ELEC,MCGILL PARK 123 MCGILL PARK,101 McGill Park Ave NE,,Atlanta,GA,30312,,888-758-4389,E,,Public,24 hours daily,,,,,,2,,,ChargePoint Network,http://www.chargepoint.com/,GPS,33.762771,-84.376919,2021-02-18,161698,1.29069,2021-02-18 00:21:44 UTC,,,,,,,,,J1772,US,2.07716,,,,Public,,public,,,,,,,,,,,,,,,,,,,
ELEC,ENTRA WEST END STATION1 LEVEL1,451 Lee st sw,,Atlanta,GA,30310,,888-758-4389,E,,Public,24 hours daily,,,,,,2,,,ChargePoint Network,http://www.chargepoint.com/,GPS,33.742912,-84.415191,2021-02-18,156139,1.41813,2021-02-18 00:21:44 UTC,,,,,,,,,J1772,US,2.28226,,,,Public,,public,,,,,,,,,,,,,,,,,,,
ELEC,Southface,241 Pine St NE,Located on the right side of the complex at the end of the driveway.,Atlanta,GA,30308,,,E,,Private,Member and staff use only,,,,,,1,,,Non-Networked,,200-8,33.767508,-84.38028,2019-11-08,51522,1.45778,2020-10-23 20:37:40 UTC,P,,,2013-04-01,,,,,J1772,US,2.34607,,,,Privé,,private,,,PARKING_LOT,,,,,,,,,,,,,,,,
ELEC,NORTHYARDS EV2,385 Northyards Blvd NW,,Atlanta,GA,30313,,888-758-4389,E,,Public,24 hours daily,,,,,,2,,,ChargePoint Network,http://www.chargepoint.com/,GPS,33.768612,-84.399712,2021-02-18,180664,1.46144,2021-02-18 00:21:44 UTC,,,,,,,,,J1772,US,2.35196,,,,Public,,public,,,,,,,,,,,,,,,,,,,
ELEC,NORTHYARDS EV1,385 Northyards Blvd NW,,Atlanta,GA,30313,,888-758-4389,E,,Public,24 hours daily,,,,,,2,,,ChargePoint Network,http://www.chargepoint.com/,GPS,33.768628,-84.399754,2021-02-18,163637,1.46327,2021-02-18 00:21:44 UTC,,,,,,,,,J1772,US,2.3549,,,,Public,,public,,,,,,,,,,,,,,,,,,,
ELEC,EDGE OTB STATION 02,679 Edgewood Ave SE,,Atlanta,GA,30307,,888-758-4389,E,,Public,24 hours daily,,,,,,2,,,ChargePoint Network,http://www.chargepoint.com/,GPS,33.754281,-84.36487,2021-02-18,147306,1.58337,2021-02-18 00:21:44 UTC,,,,,,,,,J1772,US,2.54819,,,,Public,,public,,,,,,,,,,,,,,,,,,,
ELEC,EDGE OTB STATION 01,679 Edgewood Ave NE,,Atlanta,GA,30307,,888-758-4389,E,,Public,24 hours daily,,,,,,2,,,ChargePoint Network,http://www.chargepoint.com/,GPS,33.754219,-84.364843,2021-02-18,147307,1.58381,2021-02-18 00:21:44 UTC,,,,,,,,,J1772,US,2.5489,,,,Public,,public,,,,,,,,,,,,,,,,,,,
ELEC,Coca-Cola,1 Coca Cola Plaza,,Atlanta,GA,30313,,,E,,Private,Employee use only,,,,,,,1,,Non-Networked,,GPS,33.77113434449849,-84.39728780000002,2020-11-09,76678,1.59198,2020-11-09 16:53:32 UTC,P,,,2016-03-01,,,,,CHADEMO,US,2.56204,,,,Privé,,private,,,OFFICE_BLDG,,,,,,,,,,,,,,,,
ELEC,GEORGIA POWER KROG ST DC,99 Krog St NE,,Atlanta,GA,30307,,888-758-4389,E,,Public,24 hours daily,,,,,,,1,,ChargePoint Network,http://www.chargepoint.com/,GPS,33.756777,-84.363981,2021-02-18,153118,1.68289,2021-02-18 00:21:44 UTC,,,,,,,,,CHADEMO J1772COMBO,US,2.70835,,,,Public,,public,,,,,,,,,,,,,,,,,,,
ELEC,Modera Reynoldstown Retail,780 Memorial Drive SE,,Atlanta,GA,30316,,800-663-5633,E,,Public,MO: Not Specified; TU: Not Specified; WE: Not Specified; TH: Not Specified; FR: Not Specified; SA: Not Specified; SU: Not Specified,,,,,,6,,,SemaCharge Network,https://semaconnect.com/,GPS,33.7470238,-84.361927,2021-02-18,165822,1.70599,2021-02-18 00:13:37 UTC,,,,,,,,,J1772,US,2.74552,,,,Public,,public,,,,,,,,,,$1.00-$6.00/Hr Variable Parking Fee,,,,,,,,,
ELEC,GEORGIA POWER KROG ST L2,752 Dixie Ave NE,,Atlanta,GA,30307,,888-758-4389,E,,Public,24 hours daily,,,,,,2,,,ChargePoint Network,http://www.chargepoint.com/,GPS,33.757022,-84.363379,2021-02-18,161692,1.72121,2021-02-18 00:21:44 UTC,,,,,,,,,J1772,US,2.77002,,,,Public,,public,,,,,,,,,,,,,,,,,,,
ELEC,BEACON STATION 1,1035 Grant St SE,,Atlanta,GA,30315,,888-758-4389,E,,Public,24 hours daily,,,,,,2,,,ChargePoint Network,http://www.chargepoint.com/,GPS,33.72602,-84.377529,2021-02-18,173389,1.74868,2021-02-18 00:21:44 UTC,,,,,,,,,J1772,US,2.81423,,,,Public,,public,,,,,,,,,,,,,,,,,,,
ELEC,BEACON STATION 2,1035 Grant St SE,,Atlanta,GA,30315,,888-758-4389,E,,Public,24 hours daily,,,,,,2,,,ChargePoint Network,http://www.chargepoint.com/,GPS,33.726018,-84.377472,2021-02-18,100465,1.75031,2021-02-18 00:21:44 UTC,,,,,,,,,J1772,US,2.81685,,,,Public,,public,,,,,,,,,,,,,,,,,,,
ELEC,OLD FOURTH WARD DUAL PORT,608 Ralph McGill Blvd NE,,Atlanta,GA,30312,,888-758-4389,E,,Public,24 hours daily,,,,,,2,,,ChargePoint Network,http://www.chargepoint.com/,GPS,33.764464,-84.367162,2021-02-18,117634,1.77957,2021-02-18 00:21:44 UTC,,,,,,,,,J1772,US,2.86394,,,,Public,,public,,,,,,,,,,,,,,,,,,,
ELEC,OLD FOURTH WARD SINGLE PORT,608 Ralph McGill Blvd NE,,Atlanta,GA,30312,,888-758-4389,E,,Public,24 hours daily,,,,,,1,,,ChargePoint Network,http://www.chargepoint.com/,GPS,33.764451,-84.367074,2021-02-18,173767,1.78301,2021-02-18 00:21:44 UTC,,,,,,,,,J1772,US,2.86948,,,,Public,,public,,,,,,,,,,,,,,,,,,,
ELEC,GA TECH E81 #1,81 4th St NW,,Atlanta,GA,30308,,888-758-4389,E,,Public,24 hours daily,,,,,,2,,,ChargePoint Network,http://www.chargepoint.com/,GPS,33.775203,-84.38941,2021-02-18,179915,1.84111,2021-02-18 00:21:44 UTC,,,,,,,,,J1772,US,2.96298,,,,Public,,public,,,,,,,,,,,,,,,,,,,
ELEC,GA TECH E81 #2,81 4th St NW,,Atlanta,GA,30308,,888-758-4389,E,,Public,24 hours daily,,,,,,2,,,ChargePoint Network,http://www.chargepoint.com/,GPS,33.775217,-84.389428,2021-02-18,161791,1.842,2021-02-18 00:21:44 UTC,,,,,,,,,J1772,US,2.96441,,,,Public,,public,,,,,,,,,,,,,,,,,,,
ELEC,GA TECH W02 #2,353 Ferst Dr NW,,Atlanta,GA,30313,,888-758-4389,E,,Public,24 hours daily,,,,,,2,,,ChargePoint Network,http://www.chargepoint.com/,GPS,33.774416,-84.400414,2021-02-18,161747,1.85527,2021-02-18 00:21:44 UTC,,,,,,,,,J1772,US,2.98577,,,,Public,,public,,,,,,,,,,,,,,,,,,,
ELEC,TRACE TRACE 3 PG LVL2,782 Peachtree St NW,,Atlanta,GA,30308,,888-758-4389,E,,Public,24 hours daily,,,,,,1,,,ChargePoint Network,http://www.chargepoint.com/,GPS,33.775451,-84.387328,2021-02-18,82586,1.86976,2021-02-18 00:21:44 UTC,,,,,,,,,J1772,US,3.00909,,,,Public,,public,,,,,,,,,,,,,,,,,,,
ELEC,PORTMAN CODA CODA TECH NGW 3,771 Spring St NW,,Atlanta,GA,30308,,888-758-4389,E,,Public,24 hours daily,,,,,,2,,,ChargePoint Network,http://www.chargepoint.com/,GPS,33.775618,-84.388415,2021-02-18,173987,1.87421,2021-02-18 00:21:44 UTC,,,,,,,,,J1772,US,3.01625,,,,Public,,public,,,,,,,,,,,,,,,,,,,
ELEC,PORTMAN CODA CODA TECH GW1,771 Spring St NW,,Atlanta,GA,30308,,888-758-4389,E,,Public,24 hours daily,,,,,,2,,,ChargePoint Network,http://www.chargepoint.com/,GPS,33.775655,-84.388375,2021-02-18,122180,1.87697,2021-02-18 00:21:44 UTC,,,,,,,,,J1772,US,3.02069,,,,Public,,public,,,,,,,,,,,,,,,,,,,
ELEC,PORTMAN CODA CODA TECH NGW 2,771 Spring St NW,,Atlanta,GA,30308,,888-758-4389,E,,Public,24 hours daily,,,,,,2,,,ChargePoint Network,http://www.chargepoint.com/,GPS,33.775687,-84.38837,2021-02-18,173988,1.87919,2021-02-18 00:21:44 UTC,,,,,,,,,J1772,US,3.02426,,,,Public,,public,,,,,,,,,,,,,,,,,,,
ELEC,754 MIDTOWN GW,759 West Peachtree St NW,,Atlanta,GA,30308,,888-758-4389,E,,Public,24 hours daily,,,,,,2,,,ChargePoint Network,http://www.chargepoint.com/,GPS,33.775604,-84.386929,2021-02-18,75456,1.88329,2021-02-18 00:21:44 UTC,,,,,,,,,J1772,US,3.03086,,,,Public,,public,,,,,,,,,,,,,,,,,,,
ELEC,MARIPOSA MARIPOSA EV1,100 Montag Cir,,Atlanta,GA,30307,,888-758-4389,E,,Public,24 hours daily,,,,,,2,,,ChargePoint Network,http://www.chargepoint.com/,GPS,33.760294,-84.361704,2021-02-18,100293,1.89692,2021-02-18 00:21:44 UTC,,,,,,,,,J1772,US,3.0528,,,,Public,,public,,,,,,,,,,,,,,,,,,,
ELEC,GEORGIA POWER GLENWOOD L2,800 Glenwood Ave SE,,Atlanta,GA,30316,,888-758-4389,E,,Public,24 hours daily,,,,,,2,,,ChargePoint Network,http://www.chargepoint.com/,GPS,33.741872,-84.3595,2021-02-18,172747,1.89911,2021-02-18 00:21:44 UTC,,,,,,,,,J1772,US,3.05632,,,,Public,,public,,,,,,,,,,,,,,,,,,,
ELEC,GEORGIA POWER GLENWOOD DC,800 Glenwood Ave SE,,Atlanta,GA,30316,,888-758-4389,E,,Public,24 hours daily,,,,,,,1,,ChargePoint Network,http://www.chargepoint.com/,GPS,33.74186,-84.3595,2021-02-18,80931,1.89931,2021-02-18 00:21:44 UTC,,,,,,,,,CHADEMO J1772COMBO,US,3.05664,,,,Public,,public,,,,,,,,,,,,,,,,,,,
ELEC,754 MIDTOWN 2,759 West Peachtree St NW,,Atlanta,GA,30308,,888-758-4389,E,,Public,24 hours daily,,,,,,2,,,ChargePoint Network,http://www.chargepoint.com/,GPS,33.775737,-84.386907,2021-02-18,171977,1.89255,2021-02-18 00:21:44 UTC,,,,,,,,,J1772,US,3.04576,,,,Public,,public,,,,,,,,,,,,,,,,,,,
ELEC,715 715 STATION 1,715 peachtree street,,Atlanta,GA,30308,,888-758-4389,E,,Public,24 hours daily,,,,,,2,,,ChargePoint Network,http://www.chargepoint.com/,GPS,33.775982,-84.387613,2021-02-18,171854,1.90406,2021-02-18 00:21:44 UTC,,,,,,,,,J1772,US,3.06429,,,,Public,,public,,,,,,,,,,,,,,,,,,,
ELEC,715 715 STATION 2,715 peachtree street,,Atlanta,GA,30308,,888-758-4389,E,,Public,24 hours daily,,,,,,2,,,ChargePoint Network,http://www.chargepoint.com/,GPS,33.775993,-84.387614,2021-02-18,82628,1.90481,2021-02-18 00:21:44 UTC,,,,,,,,,J1772,US,3.06549,,,,Public,,public,,,,,,,,,,,,,,,,,,,
ELEC,TRACE TRACE 1 LVL 4,782 Peachtree Street NE,,Atlanta,GA,30308,,888-758-4389,E,,Public,24 hours daily,,,,,,2,,,ChargePoint Network,http://www.chargepoint.com/,GPS,33.775941,-84.385045,2021-02-18,81381,1.92427,2021-02-18 00:21:44 UTC,,,,,,,,,J1772,US,3.09681,,,,Public,,public,,,,,,,,,,,,,,,,,,,
ELEC,TRACE TRACE 2 LVL 4,782 Peachtree Street NE,,Atlanta,GA,30308,,888-758-4389,E,,Public,24 hours daily,,,,,,2,,,ChargePoint Network,http://www.chargepoint.com/,GPS,33.77596,-84.384852,2021-02-18,172746,1.92773,2021-02-18 00:21:44 UTC,,,,,,,,,J1772,US,3.10238,,,,Public,,public,,,,,,,,,,,,,,,,,,,
ELEC,Theory West Mid Town,800 Marietta St NW,,Atlanta,GA,30318,,888-998-2546,E,,Private,MON: 24 hours | TUE: 24 hours | WED: 24 hours | THU: 24 hours | FRI: 24 hours | SAT: 24 hours | SUN: 24 hours,,,,,,4,,,Blink Network,http://www.blinkcharging.com/,GPS,33.773866,-84.405983,2021-02-17,143910,1.9339,2021-02-17 22:55:17 UTC,,,,,,,,,J1772,US,3.11231,,,,Privé,,private,,,,,,,,,,Level 2: $0.03 per 30 seconds,,,,,,,,,
ELEC,Anthem on Ashley,720 Ralph McGill Blvd NE,,Atlanta,GA,30312,,888-998-2546,E,,Public,MON: 24 hours | TUE: 24 hours | WED: 24 hours | THU: 24 hours | FRI: 24 hours | SAT: 24 hours | SUN: 24 hours,,,,,,7,,,Blink Network,http://www.blinkcharging.com/,GPS,33.76616,-84.36403,2021-02-17,183620,1.99368,2021-02-17 22:55:17 UTC,,,,,,,,,J1772,US,3.20852,,,,Public,,public,,,,,,,,,,Free,,,,,,,,,
ELEC,MIDTOWN MIDTOWN 01,819 Juniper St NE,,Atlanta,GA,30308,,888-758-4389,E,,Public,24 hours daily,,,,,,2,,,ChargePoint Network,http://www.chargepoint.com/,GPS,33.776966,-84.382427,2021-02-18,85818,2.02714,2021-02-18 00:21:44 UTC,,,,,,,,,J1772,US,3.26237,,,,Public,,public,,,,,,,,,,,,,,,,,,,
ELEC,MIDTOWN MIDTOWN 02,165 6th St NE,,Atlanta,GA,30308,,888-758-4389,E,,Public,24 hours daily,,,,,,2,,,ChargePoint Network,http://www.chargepoint.com/,GPS,33.777091,-84.382385,2021-02-18,85819,2.03609,2021-02-18 00:21:44 UTC,,,,,,,,,J1772,US,3.27677,,,,Public,,public,,,,,,,,,,,,,,,,,,,
ELEC,915 Glenwood station location,915 Glenwood Avenue,"Pricing Plan:

First 2 hours: $5.00/hour
Third hour: $8.00/hour
After 3 hours: $12.00/hour",Atlanta,GA,30316,,800-663-5633,E,,Public,MO: Not Specified; TU: Not Specified; WE: Not Specified; TH: Not Specified; FR: Not Specified; SA: Not Specified; SU: Not Specified,,,,,,2,,,SemaCharge Network,https://semaconnect.com/,GPS,33.739087,-84.3577375,2021-02-18,171371,2.05048,2021-02-18 00:13:37 UTC,,,,,,,,,J1772,US,3.29993,,,,Public,,public,,,,,,,,,,$1.75-$4.00/Hr Variable Parking Fee,,,,,,,,,
ELEC,GA TECH AREA 4 #1,837 State St NW,,Atlanta,GA,30313,,888-758-4389,E,,Public,24 hours daily,,,,,,2,,,ChargePoint Network,http://www.chargepoint.com/,GPS,33.777458,-84.399305,2021-02-18,179892,2.04258,2021-02-18 00:21:44 UTC,,,,,,,,,J1772,US,3.28721,,,,Public,,public,,,,,,,,,,,,,,,,,,,
ELEC,GA TECH AREA 4 #2,837 State St NW,,Atlanta,GA,30313,,888-758-4389,E,,Public,24 hours daily,,,,,,2,,,ChargePoint Network,http://www.chargepoint.com/,GPS,33.777503,-84.399303,2021-02-18,161745,2.04558,2021-02-18 00:21:44 UTC,,,,,,,,,J1772,US,3.29204,,,,Public,,public,,,,,,,,,,,,,,,,,,,
ELEC,GA TECH AREA 4 #3,837 State St NW,,Atlanta,GA,30313,,888-758-4389,E,,Public,24 hours daily,,,,,,2,,,ChargePoint Network,http://www.chargepoint.com/,GPS,33.777545,-84.399306,2021-02-18,179891,2.04845,2021-02-18 00:21:44 UTC,,,,,,,,,J1772,US,3.29666,,,,Public,,public,,,,,,,,,,,,,,,,,,,
ELEC,SKYHOUSE SOUTH SKYHOUSE 1,100 6th St NE,,Atlanta,GA,30308,,888-758-4389,E,,Public,24 hours daily,,,,,,2,,,ChargePoint Network,http://www.chargepoint.com/,GPS,33.777468,-84.383217,2021-02-18,182969,2.04953,2021-02-18 00:21:44 UTC,,,,,,,,,J1772,US,3.2984,,,,Public,,public,,,,,,,,,,,,,,,,,,,
ELEC,SKYHOUSE SOUTH SKYHOUSE 2,100 6th St NE,,Atlanta,GA,30308,,888-758-4389,E,,Public,24 hours daily,,,,,,2,,,ChargePoint Network,http://www.chargepoint.com/,GPS,33.777483,-84.383207,2021-02-18,182968,2.05067,2021-02-18 00:21:44 UTC,,,,,,,,,J1772,US,3.30023,,,,Public,,public,,,,,,,,,,,,,,,,,,,
ELEC,North Highland Steel Apartments,240 North Highland Avenue Northeast,,Atlanta,GA,30307,,800-663-5633,E,,Public,MO: Not Specified; TU: Not Specified; WE: Not Specified; TH: Not Specified; FR: Not Specified; SA: Not Specified; SU: Not Specified,,,,,,4,,,SemaCharge Network,https://semaconnect.com/,GPS,33.7622915,-84.3596662,2021-02-18,148730,2.0631,2021-02-18 00:13:37 UTC,,,,,,,,,J1772,US,3.32024,,,,Public,,public,,,,,,,,,,FREE,,,,,,,,,
ELEC,NCR HQ  MIDTOW NCR EV 18,858 Spring St NW,,Atlanta,GA,30308,,888-758-4389,E,,Public,24 hours daily,,,,,,2,,,ChargePoint Network,http://www.chargepoint.com/,GPS,33.778533,-84.38949,2021-02-18,173454,2.06992,2021-02-18 00:21:44 UTC,,,,,,,,,J1772,US,3.33121,,,,Public,,public,,,,,,,,,,,,,,,,,,,
ELEC,NCR HQ  MIDTOW NCR EV 14,858 Spring St NW,,Atlanta,GA,30308,,888-758-4389,E,,Public,24 hours daily,,,,,,2,,,ChargePoint Network,http://www.chargepoint.com/,GPS,33.77853,-84.389331,2021-02-18,173458,2.07024,2021-02-18 00:21:44 UTC,,,,,,,,,J1772,US,3.33173,,,,Public,,public,,,,,,,,,,,,,,,,,,,
ELEC,NCR HQ  MIDTOW NCR EV 15,858 Spring St NW,,Atlanta,GA,30308,,888-758-4389,E,,Public,24 hours daily,,,,,,2,,,ChargePoint Network,http://www.chargepoint.com/,GPS,33.778538,-84.389464,2021-02-18,173457,2.07035,2021-02-18 00:21:44 UTC,,,,,,,,,J1772,US,3.33191,,,,Public,,public,,,,,,,,,,,,,,,,,,,
ELEC,NCR HQ  MIDTOW NCR EV 19,858 Spring St NW,,Atlanta,GA,30308,,888-758-4389,E,,Public,24 hours daily,,,,,,2,,,ChargePoint Network,http://www.chargepoint.com/,GPS,33.778542,-84.389477,2021-02-18,103878,2.07058,2021-02-18 00:21:44 UTC,,,,,,,,,J1772,US,3.33228,,,,Public,,public,,,,,,,,,,,,,,,,,,,
ELEC,NCR HQ  MIDTOW NCR EV 20,858 Spring St NW,,Atlanta,GA,30308,,888-758-4389,E,,Public,24 hours daily,,,,,,2,,,ChargePoint Network,http://www.chargepoint.com/,GPS,33.778552,-84.389264,2021-02-18,173460,2.07199,2021-02-18 00:21:44 UTC,,,,,,,,,J1772,US,3.33454,,,,Public,,public,,,,,,,,,,,,,,,,,,,
ELEC,NCR HQ  MIDTOW NCR EV11,864 Spring St NW,,Atlanta,GA,30309,,888-758-4389,E,,Public,24 hours daily,,,,,,2,,,ChargePoint Network,http://www.chargepoint.com/,GPS,33.778567,-84.389555,2021-02-18,173082,2.07205,2021-02-18 00:21:44 UTC,,,,,,,,,J1772,US,3.33464,,,,Public,,public,,,,,,,,,,,,,,,,,,,
ELEC,NCR HQ  MIDTOW NCR EV 12,858 Spring St NW,,Atlanta,GA,30308,,888-758-4389,E,,Public,24 hours daily,,,,,,2,,,ChargePoint Network,http://www.chargepoint.com/,GPS,33.77857,-84.389489,2021-02-18,173459,2.07247,2021-02-18 00:21:44 UTC,,,,,,,,,J1772,US,3.33532,,,,Public,,public,,,,,,,,,,,,,,,,,,,
ELEC,NCR HQ  MIDTOW NCR EV 17,858 Spring St NW,,Atlanta,GA,30308,,888-758-4389,E,,Public,24 hours daily,,,,,,2,,,ChargePoint Network,http://www.chargepoint.com/,GPS,33.778573,-84.389292,2021-02-18,173455,2.07334,2021-02-18 00:21:44 UTC,,,,,,,,,J1772,US,3.33672,,,,Public,,public,,,,,,,,,,,,,,,,,,,
ELEC,NCR HQ  MIDTOW NCR EV 13,864 Spring St NW,,Atlanta,GA,30309,,888-758-4389,E,,Public,24 hours daily,,,,,,2,,,ChargePoint Network,http://www.chargepoint.com/,GPS,33.778604,-84.389433,2021-02-18,92375,2.07499,2021-02-18 00:21:44 UTC,,,,,,,,,J1772,US,3.33937,,,,Public,,public,,,,,,,,,,,,,,,,,,,
ELEC,NCR HQ  MIDTOW NCR EV 16,858 Spring St NW,,Atlanta,GA,30308,,888-758-4389,E,,Public,24 hours daily,,,,,,2,,,ChargePoint Network,http://www.chargepoint.com/,GPS,33.778609,-84.389374,2021-02-18,173456,2.07553,2021-02-18 00:21:44 UTC,,,,,,,,,J1772,US,3.34024,,,,Public,,public,,,,,,,,,,,,,,,,,,,
ELEC,INMAN QUARTER STATION 1,299 North Highland Avenue NE,,Atlanta,GA,30307,,888-758-4389,E,,Public,24 hours daily,,,,,,2,,,ChargePoint Network,http://www.chargepoint.com/,GPS,33.761689,-84.358721,2021-02-18,161752,2.09329,2021-02-18 00:21:44 UTC,,,,,,,,,J1772,US,3.36882,,,,Public,,public,,,,,,,,,,,,,,,,,,,
ELEC,NCR HQ  MIDTOW NCR EV1,864 Spring St NW,,Atlanta,GA,30309,,888-758-4389,E,,Public,24 hours daily,,,,,,2,,,ChargePoint Network,http://www.chargepoint.com/,GPS,33.778984,-84.389968,2021-02-18,173074,2.09962,2021-02-18 00:21:44 UTC,,,,,,,,,J1772,US,3.37901,,,,Public,,public,,,,,,,,,,,,,,,,,,,
ELEC,NCR HQ  MIDTOW NCR EV5 GW,864 Spring St NW,,Atlanta,GA,30309,,888-758-4389,E,,Public,24 hours daily,,,,,,2,,,ChargePoint Network,http://www.chargepoint.com/,GPS,33.778985,-84.389917,2021-02-18,173083,2.09981,2021-02-18 00:21:44 UTC,,,,,,,,,J1772,US,3.37932,,,,Public,,public,,,,,,,,,,,,,,,,,,,
ELEC,NCR HQ  MIDTOW NCR EV6,864 Spring St NW,,Atlanta,GA,30309,,888-758-4389,E,,Public,24 hours daily,,,,,,2,,,ChargePoint Network,http://www.chargepoint.com/,GPS,33.778985,-84.389909,2021-02-18,173081,2.09983,2021-02-18 00:21:44 UTC,,,,,,,,,J1772,US,3.37935,,,,Public,,public,,,,,,,,,,,,,,,,,,,
ELEC,NCR HQ  MIDTOW NCR EV4,864 Spring St NW,,Atlanta,GA,30309,,888-758-4389,E,,Public,24 hours daily,,,,,,2,,,ChargePoint Network,http://www.chargepoint.com/,GPS,33.778986,-84.389926,2021-02-18,173075,2.09986,2021-02-18 00:21:44 UTC,,,,,,,,,J1772,US,3.3794,,,,Public,,public,,,,,,,,,,,,,,,,,,,
ELEC,NCR HQ  MIDTOW NCR EV3,864 Spring St NW,,Atlanta,GA,30309,,888-758-4389,E,,Public,24 hours daily,,,,,,2,,,ChargePoint Network,http://www.chargepoint.com/,GPS,33.778987,-84.389935,2021-02-18,173078,2.0999,2021-02-18 00:21:44 UTC,,,,,,,,,J1772,US,3.37946,,,,Public,,public,,,,,,,,,,,,,,,,,,,
ELEC,NCR HQ  MIDTOW NCR EV7,864 Spring St NW,,Atlanta,GA,30309,,888-758-4389,E,,Public,24 hours daily,,,,,,2,,,ChargePoint Network,http://www.chargepoint.com/,GPS,33.778986,-84.3899,2021-02-18,173079,2.09992,2021-02-18 00:21:44 UTC,,,,,,,,,J1772,US,3.37949,,,,Public,,public,,,,,,,,,,,,,,,,,,,
ELEC,NCR HQ  MIDTOW NCR EV2,864 Spring St NW,,Atlanta,GA,30309,,888-758-4389,E,,Public,24 hours daily,,,,,,2,,,ChargePoint Network,http://www.chargepoint.com/,GPS,33.778988,-84.38995,2021-02-18,173077,2.09994,2021-02-18 00:21:44 UTC,,,,,,,,,J1772,US,3.37953,,,,Public,,public,,,,,,,,,,,,,,,,,,,
ELEC,NCR HQ  MIDTOW NCR EV8,864 Spring St NW,,Atlanta,GA,30309,,888-758-4389,E,,Public,24 hours daily,,,,,,2,,,ChargePoint Network,http://www.chargepoint.com/,GPS,33.778992,-84.389884,2021-02-18,173080,2.10038,2021-02-18 00:21:44 UTC,,,,,,,,,J1772,US,3.38023,,,,Public,,public,,,,,,,,,,,,,,,,,,,
ELEC,NCR HQ  MIDTOW NCR EV10,864 Spring St NW,,Atlanta,GA,30309,,888-758-4389,E,,Public,24 hours daily,,,,,,2,,,ChargePoint Network,http://www.chargepoint.com/,GPS,33.778994,-84.389849,2021-02-18,173076,2.1006,2021-02-18 00:21:44 UTC,,,,,,,,,J1772,US,3.38059,,,,Public,,public,,,,,,,,,,,,,,,,,,,
ELEC,NCR HQ  MIDTOW NCR EV9,864 Spring St NW,,Atlanta,GA,30309,,888-758-4389,E,,Public,24 hours daily,,,,,,2,,,ChargePoint Network,http://www.chargepoint.com/,GPS,33.778995,-84.389857,2021-02-18,173073,2.10065,2021-02-18 00:21:44 UTC,,,,,,,,,J1772,US,3.38067,,,,Public,,public,,,,,,,,,,,,,,,,,,,
ELEC,NORTH AND LINE NORTH AND LINE2,385 N Angier Ave NE,,Atlanta,GA,30308,,888-758-4389,E,,Public,24 hours daily,,,,,,2,,,ChargePoint Network,http://www.chargepoint.com/,GPS,33.769971,-84.363785,2021-02-18,122737,2.17396,2021-02-18 00:21:44 UTC,,,,,,,,,J1772,US,3.49865,,,,Public,,public,,,,,,,,,,,,,,,,,,,
ELEC,Modera Midtown,95 8th Street Northwest,,Atlanta,GA,30309,,800-663-5633,E,,Public,MO: Not Specified; TU: Not Specified; WE: Not Specified; TH: Not Specified; FR: Not Specified; SA: Not Specified; SU: Not Specified,,,,,,5,,,SemaCharge Network,https://semaconnect.com/,GPS,33.7800213,-84.3900752,2021-02-18,148722,2.17081,2021-02-18 00:13:37 UTC,,,,,,,,,J1772,US,3.49358,,,,Public,,public,,,,,,,,,,FREE,,,,,,,,,
ELEC,Ponce City Market,675 Ponce de Leon Ave NE,,Atlanta,GA,30308,,877-455-3833,E,,Public,24 hours daily,,,,,,,1,,eVgo Network,https://www.evgo.com/,GPS,33.772076,-84.366198,2021-02-18,170156,2.17981,2021-02-18 01:05:35 UTC,,,,,,,,,CHADEMO J1772COMBO,US,3.50806,,,,Public,,public,,,,,,,,,,,,,,,,,,,
ELEC,NORTH AND LINE NORTH AND LINE1,365 Angier Pl NE,,Atlanta,GA,30308,,888-758-4389,E,,Public,24 hours daily,,,,,,2,,,ChargePoint Network,http://www.chargepoint.com/,GPS,33.770391,-84.363842,2021-02-18,122738,2.19134,2021-02-18 00:21:44 UTC,,,,,,,,,J1772,US,3.52662,,,,Public,,public,,,,,,,,,,,,,,,,,,,
ELEC,PONCE CITY MKT GARAGE LEVEL 4B,675 Ponce De Leon Ave NE,,Atlanta,GA,30308,,888-758-4389,E,,Public,24 hours daily,,,,,,2,,,ChargePoint Network,http://www.chargepoint.com/,GPS,33.772522,-84.365968,2021-02-18,172805,2.21155,2021-02-18 00:21:44 UTC,,,,,,,,,J1772,US,3.55914,,,,Public,,public,,,,,,,,,,,,,,,,,,,
ELEC,GA TECH W23 #2,352 Peachtree Pl NW,,Atlanta,GA,30318,,888-758-4389,E,,Public,24 hours daily,,,,,,2,,,ChargePoint Network,http://www.chargepoint.com/,GPS,33.780046,-84.398503,2021-02-18,161746,2.20804,2021-02-18 00:21:44 UTC,,,,,,,,,J1772,US,3.5535,,,,Public,,public,,,,,,,,,,,,,,,,,,,
ELEC,GA TECH W23 #1,352 Peachtree Pl NW,,Atlanta,GA,30318,,888-758-4389,E,,Public,24 hours daily,,,,,,2,,,ChargePoint Network,http://www.chargepoint.com/,GPS,33.780038,-84.398571,2021-02-18,179893,2.20822,2021-02-18 00:21:44 UTC,,,,,,,,,J1772,US,3.55379,,,,Public,,public,,,,,,,,,,,,,,,,,,,
ELEC,PONCE CITY MKT GARAGE LEVEL 4A,675 Ponce De Leon Ave NE,,Atlanta,GA,30308,,888-758-4389,E,,Public,24 hours daily,,,,,,2,,,ChargePoint Network,http://www.chargepoint.com/,GPS,33.772522,-84.365925,2021-02-18,85622,2.2132,2021-02-18 00:21:44 UTC,,,,,,,,,J1772,US,3.5618,,,,Public,,public,,,,,,,,,,,,,,,,,,,
ELEC,PONCE CITY MKT GARAGE LEVEL 3A,675 Ponce De Leon Ave NE,,Atlanta,GA,30308,,888-758-4389,E,,Public,24 hours daily,,,,,,2,,,ChargePoint Network,http://www.chargepoint.com/,GPS,33.772522,-84.365871,2021-02-18,172806,2.21526,2021-02-18 00:21:44 UTC,,,,,,,,,J1772,US,3.56512,,,,Public,,public,,,,,,,,,,,,,,,,,,,
ELEC,GA TECH W22 #9,925 Dalney Street NW,,Atlanta,GA,30318,,888-758-4389,E,,Public,24 hours daily,,,,,,2,,,ChargePoint Network,http://www.chargepoint.com/,GPS,33.779882,-84.400617,2021-02-18,174597,2.22247,2021-02-18 00:21:44 UTC,,,,,,,,,J1772,US,3.57672,,,,Public,,public,,,,,,,,,,,,,,,,,,,
ELEC,GA TECH W22 #1,925 Dalney Street NW,,Atlanta,GA,30318,,888-758-4389,E,,Public,24 hours daily,,,,,,2,,,ChargePoint Network,http://www.chargepoint.com/,GPS,33.779888,-84.400621,2021-02-18,147343,2.22293,2021-02-18 00:21:44 UTC,,,,,,,,,J1772,US,3.57746,,,,Public,,public,,,,,,,,,,,,,,,,,,,
ELEC,GA TECH W22 #5,925 Dalney Street NW,,Atlanta,GA,30318,,888-758-4389,E,,Public,24 hours daily,,,,,,2,,,ChargePoint Network,http://www.chargepoint.com/,GPS,33.779871,-84.400726,2021-02-18,174596,2.22323,2021-02-18 00:21:44 UTC,,,,,,,,,J1772,US,3.57794,,,,Public,,public,,,,,,,,,,,,,,,,,,,
ELEC,GA TECH W22 #2,925 Dalney Street NW,,Atlanta,GA,30318,,888-758-4389,E,,Public,24 hours daily,,,,,,2,,,ChargePoint Network,http://www.chargepoint.com/,GPS,33.779885,-84.400666,2021-02-18,174592,2.22334,2021-02-18 00:21:44 UTC,,,,,,,,,J1772,US,3.57812,,,,Public,,public,,,,,,,,,,,,,,,,,,,
ELEC,GA TECH W22 #6,925 Dalney Street NW,,Atlanta,GA,30318,,888-758-4389,E,,Public,24 hours daily,,,,,,2,,,ChargePoint Network,http://www.chargepoint.com/,GPS,33.779884,-84.400699,2021-02-18,174599,2.22373,2021-02-18 00:21:44 UTC,,,,,,,,,J1772,US,3.57875,,,,Public,,public,,,,,,,,,,,,,,,,,,,
ELEC,GA TECH W22 #3,925 Dalney Street NW,,Atlanta,GA,30318,,888-758-4389,E,,Public,24 hours daily,,,,,,2,,,ChargePoint Network,http://www.chargepoint.com/,GPS,33.779885,-84.400727,2021-02-18,174598,2.22418,2021-02-18 00:21:44 UTC,,,,,,,,,J1772,US,3.57947,,,,Public,,public,,,,,,,,,,,,,,,,,,,
ELEC,GA TECH W22 #10,925 Dalney Street NW,,Atlanta,GA,30318,,888-758-4389,E,,Public,24 hours daily,,,,,,2,,,ChargePoint Network,http://www.chargepoint.com/,GPS,33.779885,-84.400731,2021-02-18,174600,2.22423,2021-02-18 00:21:44 UTC,,,,,,,,,J1772,US,3.57955,,,,Public,,public,,,,,,,,,,,,,,,,,,,
ELEC,GA TECH W22 #7,925 Dalney Street NW,,Atlanta,GA,30318,,888-758-4389,E,,Public,24 hours daily,,,,,,2,,,ChargePoint Network,http://www.chargepoint.com/,GPS,33.779887,-84.400778,2021-02-18,174595,2.22501,2021-02-18 00:21:44 UTC,,,,,,,,,J1772,US,3.58081,,,,Public,,public,,,,,,,,,,,,,,,,,,,
ELEC,GA TECH W22 #4,925 Dalney Street NW,,Atlanta,GA,30318,,888-758-4389,E,,Public,24 hours daily,,,,,,2,,,ChargePoint Network,http://www.chargepoint.com/,GPS,33.779886,-84.400791,2021-02-18,174593,2.22513,2021-02-18 00:21:44 UTC,,,,,,,,,J1772,US,3.581,,,,Public,,public,,,,,,,,,,,,,,,,,,,
ELEC,GA TECH W22 #8,925 Dalney Street NW,,Atlanta,GA,30318,,888-758-4389,E,,Public,24 hours daily,,,,,,2,,,ChargePoint Network,http://www.chargepoint.com/,GPS,33.779887,-84.400812,2021-02-18,174594,2.22548,2021-02-18 00:21:44 UTC,,,,,,,,,J1772,US,3.58156,,,,Public,,public,,,,,,,,,,,,,,,,,,,
ELEC,Stonehurst Place - Atlanta - Tesla Destination,923 Piedmont Ave NE,,Atlanta,GA,30309,,877-798-3752  877-798-3752,E,,Public,24 hours daily; for customer use only; see front desk for access,,,,,,2,,,Tesla Destination,https://www.tesla.com/destination-charging,200-9,33.779929,-84.380576,2020-11-03,169140,2.25248,2020-11-18 00:06:10 UTC,P,,,2020-11-03,,,,,J1772 TESLA,US,3.62502,,,,Public,,public,,,,,,,,,,Free,,,,,,,,,
ELEC,GA TECH CURRAN 2,875 Curran St NW,,Atlanta,GA,30318,,888-758-4389,E,,Public,24 hours daily,,,,,,2,,,ChargePoint Network,http://www.chargepoint.com/,GPS,33.779341,-84.405184,2021-02-18,179894,2.26378,2021-02-18 00:21:44 UTC,,,,,,,,,J1772,US,3.6432,,,,Public,,public,,,,,,,,,,,,,,,,,,,
ELEC,GA TECH CURRAN,875 Curran St NW,,Atlanta,GA,30318,,888-758-4389,E,,Public,24 hours daily,,,,,,2,,,ChargePoint Network,http://www.chargepoint.com/,GPS,33.779423,-84.405185,2021-02-18,161753,2.2691,2021-02-18 00:21:44 UTC,,,,,,,,,J1772,US,3.65176,,,,Public,,public,,,,,,,,,,,,,,,,,,,
ELEC,725 Ponce,725 Ponce De Leon Avenue Northeast,,Atlanta,GA,30306,,800-663-5633,E,,Public,MO: Not Specified; TU: Not Specified; WE: Not Specified; TH: Not Specified; FR: Not Specified; SA: Not Specified; SU: Not Specified,,,,,,10,,,SemaCharge Network,https://semaconnect.com/,GPS,33.77169,-84.363355,2021-02-18,149131,2.27367,2021-02-18 00:13:37 UTC,,,,,,,,,J1772,US,3.65912,,,,Public,,public,,,,,,,,,,$0.00-$5.00/Hr Variable Parking Fee,,,,,,,,,
ELEC,TURNER TECHWOOD TECH 1000 01,1000 Techwood Dr NW,,Atlanta,GA,30318,,888-758-4389,E,,Public,24 hours daily,,,,,,2,,,ChargePoint Network,http://www.chargepoint.com/,GPS,33.781832,-84.393529,2021-02-18,179914,2.29701,2021-02-18 00:21:44 UTC,,,,,,,,,J1772,US,3.69668,,,,Public,,public,,,,,,,,,,,,,,,,,,,
ELEC,TURNER TECHWOOD TECH 1000 2,1000 Techwood Dr NW,,Atlanta,GA,30318,,888-758-4389,E,,Public,24 hours daily,,,,,,2,,,ChargePoint Network,http://www.chargepoint.com/,GPS,33.781903,-84.393491,2021-02-18,161785,2.30179,2021-02-18 00:21:44 UTC,,,,,,,,,J1772,US,3.70437,,,,Public,,public,,,,,,,,,,,,,,,,,,,
ELEC,TEN10THSTREET EVSE01,10 10th St NW,,Atlanta,GA,30309,,888-758-4389,E,,Public,24 hours daily,,,,,,2,,,ChargePoint Network,http://www.chargepoint.com/,GPS,33.782156,-84.386919,2021-02-18,55793,2.33135,2021-02-18 00:21:44 UTC,,,,,,,,,J1772,US,3.75194,,,,Public,,public,,,,,,,,,,,,,,,,,,,
ELEC,TURNER TECHWOOD TECH 1030 02,1030 Techwood Dr NW,,Atlanta,GA,30318,,888-758-4389,E,,Public,24 hours daily,,,,,,2,,,ChargePoint Network,http://www.chargepoint.com/,GPS,33.78313,-84.394965,2021-02-18,161797,2.39183,2021-02-18 00:21:44 UTC,,,,,,,,,J1772,US,3.84928,,,,Public,,public,,,,,,,,,,,,,,,,,,,
ELEC,TURNER TECHWOOD TECH 1030 01,1030 Techwood Dr NW,,Atlanta,GA,30318,,888-758-4389,E,,Public,24 hours daily,,,,,,2,,,ChargePoint Network,http://www.chargepoint.com/,GPS,33.783136,-84.395024,2021-02-18,179920,2.39253,2021-02-18 00:21:44 UTC,,,,,,,,,J1772,US,3.8504,,,,Public,,public,,,,,,,,,,,,,,,,,,,
ELEC,Daniel Corp,1075 Peachtree St NE,On Level P12,Atlanta,GA,30309,,,E,,Private,Employee use only,,,,,,2,,,Non-Networked,,GPS,33.78412,-84.3828,2020-11-09,37265,2.50239,2020-11-09 16:53:32 UTC,P,,,2010-12-15,,,,,J1772,US,4.02721,,,,Privé,,private,,,OFFICE_BLDG,,,,,,,,,,,,,,,,
ELEC,ORANGE STATIONS NORTHSIDE EV2P2,1110 West Peachtree Street Northwest,,Atlanta,GA,30309,,888-758-4389,E,,Public,24 hours daily,,,,,,2,,,ChargePoint Network,http://www.chargepoint.com/,GPS,33.78505,-84.388269,2021-02-18,116884,2.52271,2021-02-18 00:21:44 UTC,,,,,,,,,J1772,US,4.05991,,,,Public,,public,,,,,,,,,,,,,,,,,,,
ELEC,ORANGE STATIONS NORTHSIDE EV1P2,1110 West Peachtree Street Northwest,,Atlanta,GA,30309,,888-758-4389,E,,Public,24 hours daily,,,,,,2,,,ChargePoint Network,http://www.chargepoint.com/,GPS,33.785085,-84.388215,2021-02-18,173700,2.52535,2021-02-18 00:21:44 UTC,,,,,,,,,J1772,US,4.06416,,,,Public,,public,,,,,,,,,,,,,,,,,,,
ELEC,ORANGE STATIONS NORTHSIDE EV1P1,1110 West Peachtree Street Northwest,,Atlanta,GA,30309,,888-758-4389,E,,Public,24 hours daily,,,,,,2,,,ChargePoint Network,http://www.chargepoint.com/,GPS,33.785096,-84.388232,2021-02-18,173699,2.52603,2021-02-18 00:21:44 UTC,,,,,,,,,J1772,US,4.06525,,,,Public,,public,,,,,,,,,,,,,,,,,,,
ELEC,WHOLE FOODS MKT ATLANTA 2,22 14th St NW,,Atlanta,GA,30309,,888-758-4389,E,,Public,24 hours daily,,,,,,1,,,ChargePoint Network,http://www.chargepoint.com/,GPS,33.785936,-84.388633,2021-02-18,173935,2.58219,2021-02-18 00:21:44 UTC,,,,,,,,,J1772,US,4.15563,,,,Public,,public,,,,,,,,,,,,,,,,,,,
ELEC,WHOLE FOODS MKT ATLANTA 3,22 14th St NW,,Atlanta,GA,30309,,888-758-4389,E,,Public,24 hours daily,,,,,,1,,,ChargePoint Network,http://www.chargepoint.com/,GPS,33.785992,-84.388722,2021-02-18,173934,2.58572,2021-02-18 00:21:44 UTC,,,,,,,,,J1772,US,4.16131,,,,Public,,public,,,,,,,,,,,,,,,,,,,
ELEC,INTERPARK MOXY 1,48 13th St NE,,Atlanta,GA,30309,,888-758-4389,E,,Public,24 hours daily,,,,,,2,,,ChargePoint Network,http://www.chargepoint.com/,GPS,33.785818,-84.385969,2021-02-18,174102,2.58844,2021-02-18 00:21:44 UTC,,,,,,,,,J1772,US,4.16569,,,,Public,,public,,,,,,,,,,,,,,,,,,,
ELEC,INTERPARK MOXY 2,48 13th St NE,,Atlanta,GA,30309,,888-758-4389,E,,Public,24 hours daily,,,,,,2,,,ChargePoint Network,http://www.chargepoint.com/,GPS,33.785823,-84.385965,2021-02-18,123410,2.58881,2021-02-18 00:21:44 UTC,,,,,,,,,J1772,US,4.16629,,,,Public,,public,,,,,,,,,,,,,,,,,,,
ELEC,WHOLE FOODS MKT ATLANTA 1,22 14th St NW,,Atlanta,GA,30309,,888-758-4389,E,,Public,24 hours daily,,,,,,2,,,ChargePoint Network,http://www.chargepoint.com/,GPS,33.786068,-84.388647,2021-02-18,173936,2.59122,2021-02-18 00:21:44 UTC,,,,,,,,,J1772,US,4.17016,,,,Public,,public,,,,,,,,,,,,,,,,,,,
ELEC,WHOLE FOODS MKT ATLANTA 4,22 14th St NW,,Atlanta,GA,30309,,888-758-4389,E,,Public,24 hours daily,,,,,,1,,,ChargePoint Network,http://www.chargepoint.com/,GPS,33.786153,-84.388529,2021-02-18,121240,2.5975,2021-02-18 00:21:44 UTC,,,,,,,,,J1772,US,4.18027,,,,Public,,public,,,,,,,,,,,,,,,,,,,
ELEC,YOO YOO EV2,211 13th St NE,,Atlanta,GA,30309,,888-758-4389,E,,Public,24 hours daily,,,,,,2,,,ChargePoint Network,http://www.chargepoint.com/,GPS,33.785134,-84.380425,2021-02-18,92340,2.60099,2021-02-18 00:21:44 UTC,,,,,,,,,J1772,US,4.18589,,,,Public,,public,,,,,,,,,,,,,,,,,,,
ELEC,YOO YOO EV1,211 13th St NE,,Atlanta,GA,30309,,888-758-4389,E,,Public,24 hours daily,,,,,,2,,,ChargePoint Network,http://www.chargepoint.com/,GPS,33.785159,-84.380384,2021-02-18,173061,2.60324,2021-02-18 00:21:44 UTC,,,,,,,,,J1772,US,4.18951,,,,Public,,public,,,,,,,,,,,,,,,,,,,
ELEC,Four Seasons Hotel Atlanta - Tesla Destination,75 Fourteenth St NE,,Atlanta,GA,30309,,404-881-9898  877-798-3752,E,,Public,24 hours daily; for customer use only; see valet for access,,,,,,3,,,Tesla Destination,https://www.tesla.com/destination-charging,200-9,33.786161,-84.385296,2020-11-03,113995,2.6169,2020-11-18 00:06:10 UTC,P,,,2015-10-01,,,,,J1772 TESLA,US,4.21149,,,,Public,,public,,,HOTEL,,,,,,,Free,,,,,,,,,
ELEC,PROSCENIUM STATION 2,1170 Crescent Ave NE,,Atlanta,GA,30309,,888-758-4389,E,,Public,24 hours daily,,,,,,2,,,ChargePoint Network,http://www.chargepoint.com/,GPS,33.786314,-84.384468,2021-02-18,173320,2.63425,2021-02-18 00:21:44 UTC,,,,,,,,,J1772,US,4.23941,,,,Public,,public,,,,,,,,,,,,,,,,,,,
ELEC,PROSCENIUM STATION 1,1170 Crescent Ave NE,,Atlanta,GA,30309,,888-758-4389,E,,Public,24 hours daily,,,,,,2,,,ChargePoint Network,http://www.chargepoint.com/,GPS,33.786336,-84.38443,2021-02-18,99825,2.63609,2021-02-18 00:21:44 UTC,,,,,,,,,J1772,US,4.24238,,,,Public,,public,,,,,,,,,,,,,,,,,,,
ELEC,Regions Plaza,1180 West Peachtree Street,The stations are on A1 of the garage. Public drivers please see garage hours for availability.,Atlanta,GA,30309,,800-663-5633,E,,Public,MO: Not Specified; TU: Not Specified; WE: Not Specified; TH: Not Specified; FR: Not Specified; SA: Not Specified; SU: Not Specified,,,,,,2,,,SemaCharge Network,https://semaconnect.com/,GPS,33.786964,-84.3882702,2021-02-18,148719,2.65428,2021-02-18 00:13:37 UTC,,,,,,,,,J1772,US,4.27165,,,,Public,,public,,,,,,,,,,$1.00-$5.00/Hr Variable Parking Fee,,,,,,,,,
ELEC,Windsor at Midtown,2222 14th St NE,,Atlanta,GA,30309,,800-663-5633,E,,Public,MO: Not Specified; TU: Not Specified; WE: Not Specified; TH: Not Specified; FR: Not Specified; SA: Not Specified; SU: Not Specified,,,,,,2,,,SemaCharge Network,https://semaconnect.com/,GPS,33.7864614,-84.3828762,2021-02-18,164855,2.65986,2021-02-18 00:13:37 UTC,,,,,,,,,J1772,US,4.28063,,,,Public,,public,,,,,,,,,,FREE,,,,,,,,,
ELEC,One Atlantic Center - Tesla Destination,1201 Peachtree St NW #1710,,Atlanta,GA,30309,,404-870-2900  877-798-3752,E,,Public,24 hours daily; for customer use only,,,,,,6,,,Tesla Destination,https://www.tesla.com/destination-charging,GPS,33.7871136,-84.3894519,2020-11-03,122424,2.66068,2020-11-18 00:06:10 UTC,P,,,2019-03-01,,,,,TESLA,US,4.28195,,,,Public,,public,,,,,,,,,,Free,,,,,,,,,
ELEC,GEORGIA POWER ENVISION L21,1560 Metropolitan Pkwy SW,,Atlanta,GA,30310,,888-758-4389,E,,Public,24 hours daily,,,,,,2,,,ChargePoint Network,http://www.chargepoint.com/,GPS,33.71127,-84.403834,2021-02-18,168074,2.66551,2021-02-18 00:21:44 UTC,,,,,,,,,J1772,US,4.28972,,,,Public,,public,,,,,,,,,,,,,,,,,,,
ELEC,PURITAN MILL PURITAN MILL EV,916 Joseph E Lowery Blvd NW,,Atlanta,GA,30318,,888-758-4389,E,,Public,24 hours daily,,,,,,2,,,ChargePoint Network,http://www.chargepoint.com/,GPS,33.780224,-84.418301,2021-02-18,87767,2.67323,2021-02-18 00:21:44 UTC,,,,,,,,,J1772,US,4.30215,,,,Public,,public,,,,,,,,,,,,,,,,,,,
ELEC,One Atlantic Center,1201 W Peachtree St,Stations are located on the W Peachtree Rd side of the parking deck near the exit on level B2,Atlanta,GA,30309,,,E,,Private,Tenant and guest use only,,,,,,19,,,Non-Networked,,200-9,33.787208,-84.387453,2021-01-14,46991,2.67474,2021-01-14 18:42:41 UTC,P,,,2012-05-15,,,,,J1772,US,4.30458,,,,Privé,,private,,,PARKING_GARAGE,,,,,,,,,,,,,,,,
ELEC,Manuel's Tavern Location 1,602 N Highland Avenue Northeast,,Atlanta,GA,30307,,888-998-2546,E,,Public,MON: 24 hours | TUE: 24 hours | WED: 24 hours | THU: 24 hours | FRI: 24 hours | SAT: 24 hours | SUN: 24 hours,,,,,,2,,,Blink Network,http://www.blinkcharging.com/,GPS,33.7706323,-84.3529535,2021-02-17,95218,2.69097,2021-02-17 22:55:17 UTC,,,,,,,,,J1772,US,4.3307,,,,Public,,public,,,,,,,,,,Level 2: $0.03 per 30 seconds,,,,,,,,,
ELEC,1180 Peachtree Building,1180 Peachtree St NE,NW corner of Peachtree and 14th St. 14th floor of Peachtree building parking garage,Atlanta,GA,30309,,,E,,Private,Tenant and guest use only; pay lot,,,,,,3,,,Non-Networked,,200-9,33.787,-84.383549,2020-11-09,47246,2.68948,2020-11-09 16:53:32 UTC,P,,,2012-06-06,,,,,J1772,US,4.3283,,,,Privé,,private,,,PAY_GARAGE,,,,,,,,,,,,,,,,
ELEC,Colony Square,1197 Peachtree St NE,,Atlanta,GA,30361,,404-879-2250,E,,Public,24 hours daily,,,,,,2,,,Non-Networked,,GPS,33.786898,-84.3827319,2021-01-14,73104,2.69098,2021-01-14 18:42:41 UTC,P,,,2016-01-25,,,,,J1772,US,4.33071,,,,Public,,public,,,PAY_GARAGE,,,,,,,Free,,,,,,,,,
ELEC,PROMENADE DECK PROMENADE,1230 Peachtree Street,,Atlanta,GA,30309,,888-758-4389,E,,Public,24 hours daily,,,,,,2,,,ChargePoint Network,http://www.chargepoint.com/,GPS,33.787868,-84.386047,2021-02-18,161773,2.72819,2021-02-18 00:21:44 UTC,,,,,,,,,J1772,US,4.3906,,,,Public,,public,,,,,,,,,,,,,,,,,,,
ELEC,PROMENADE DECK PROMENADE 2,15th St NE @ Lombardy Way NE,,Atlanta,GA,30309,,888-758-4389,E,,Public,24 hours daily,,,,,,2,,,ChargePoint Network,http://www.chargepoint.com/,GPS,33.78806,-84.385908,2021-02-18,161714,2.74226,2021-02-18 00:21:44 UTC,,,,,,,,,J1772,US,4.41324,,,,Public,,public,,,,,,,,,,,,,,,,,,,
ELEC,USP Atlanta,601 McDonough Blvd SE,,Atlanta,GA,30315,,,E,,Private - Government only,,,,,,2,,,,Non-Networked,,GPS,33.711613,-84.371062,,184698,2.80449,2021-02-11 18:30:11 UTC,FG,12,Department of Justice,2021-01-15,,,,,NEMA515,US,4.51339,,,,Privé - Réservé au gouvernement,,private,GOVERNMENT,DOJ,FED_GOV,,,,,,,,,,,,,,,,
ELEC,BASE CAMP INTERFACE1,1280 West Peachtree Street Northwest,,Atlanta,GA,30309,,888-758-4389,E,,Public,24 hours daily,,,,,,2,,,ChargePoint Network,http://www.chargepoint.com/,GPS,33.789808,-84.388283,2021-02-18,118511,2.8498,2021-02-18 00:21:44 UTC,,,,,,,,,J1772,US,4.58631,,,,Public,,public,,,,,,,,,,,,,,,,,,,
ELEC,IKEA - Atlanta,441 16th Street NW,,Atlanta,GA,30363,,888-998-2546,E,,Public,MON: 24 hours | TUE: 24 hours | WED: 24 hours | THU: 24 hours | FRI: 24 hours | SAT: 24 hours | SUN: 24 hours,,,,,,4,,,Blink Network,http://www.blinkcharging.com/,GPS,33.788726,-84.404108,2021-02-17,96096,2.86268,2021-02-17 22:55:17 UTC,,,,,,,,,J1772,US,4.60704,,,,Public,,public,,,,,,,,,,Level 2: $0.03 per minute,,,,,,,,,
ELEC,Walton Westside Apartments,790 Huff Road NW,,Atlanta,GA,30318,,800-663-5633,E,,Public,MO: Not Specified; TU: Not Specified; WE: Not Specified; TH: Not Specified; FR: Not Specified; SA: Not Specified; SU: Not Specified,,,,,,3,,,SemaCharge Network,https://semaconnect.com/,GPS,33.7869122,-84.4137063,2021-02-18,148718,2.93688,2021-02-18 00:13:37 UTC,,,,,,,,,J1772,US,4.72645,,,,Public,,public,,,,,,,,,,FREE,,,,,,,,,
ELEC,MIDTOWN PLAZA MIDTOWN117-118,1349 W Peachtree St NE,,Atlanta,GA,30309,,888-758-4389,E,,Public,24 hours daily,,,,,,2,,,ChargePoint Network,http://www.chargepoint.com/,GPS,33.791365,-84.386874,2021-02-18,99645,2.96307,2021-02-18 00:21:44 UTC,,,,,,,,,J1772,US,4.7686,,,,Public,,public,,,,,,,,,,,,,,,,,,,
ELEC,MIDTOWN PLAZA MIDTOWN 163-164,1360 W Peachtree St NE,,Atlanta,GA,30309,,888-758-4389,E,,Public,24 hours daily,,,,,,2,,,ChargePoint Network,http://www.chargepoint.com/,GPS,33.79175,-84.386337,2021-02-18,99644,2.99242,2021-02-18 00:21:44 UTC,,,,,,,,,J1772,US,4.81583,,,,Public,,public,,,,,,,,,,,,,,,,,,,
ELEC,MARTA EDGEWOOD L3,1414 DeKalb Ave NE,,Atlanta,GA,30307,,888-758-4389,E,,Public,24 hours daily,,,,,,2,,,ChargePoint Network,http://www.chargepoint.com/,GPS,33.762147,-84.341449,2021-02-18,175654,3.03014,2021-02-18 00:21:44 UTC,,,,,,,,,J1772,US,4.87654,,,,Public,,public,,,,,,,,,,,,,,,,,,,
ELEC,MARTA EDGEWOOD L2,1414 DeKalb Ave NE,,Atlanta,GA,30307,,888-758-4389,E,,Public,24 hours daily,,,,,,2,,,ChargePoint Network,http://www.chargepoint.com/,GPS,33.76215,-84.341405,2021-02-18,175653,3.03261,2021-02-18 00:21:44 UTC,,,,,,,,,J1772,US,4.88051,,,,Public,,public,,,,,,,,,,,,,,,,,,,
ELEC,MARTA EDGEWOOD L1,1414 DeKalb Ave NE,,Atlanta,GA,30307,,888-758-4389,E,,Public,24 hours daily,,,,,,2,,,ChargePoint Network,http://www.chargepoint.com/,GPS,33.76215,-84.341332,2021-02-18,156203,3.0366,2021-02-18 00:21:44 UTC,,,,,,,,,J1772,US,4.88693,,,,Public,,public,,,,,,,,,,,,,,,,,,,
ELEC,464 Bishop Street NW station location,464 Bishop Street NW,These stations are available for tenants of 464 Bishop Apartments only. No public charging available.,Atlanta,GA,30318,,800-663-5633,E,,Public,MO: 12:00am-12:00am; TU: 12:00am-12:00am; WE: 12:00am-12:00am; TH: 12:00am-12:00am; FR: 12:00am-12:00am; SA: 12:00am-12:00am; SU: 12:00am-12:00am,,,,,,4,,,SemaCharge Network,https://semaconnect.com/,GPS,33.7927068,-84.4031715,2021-02-18,148716,3.11679,2021-02-18 00:13:37 UTC,,,,,,,,,J1772,US,5.01599,,,,Public,,public,,,,,,,,,,$1.00/Hr Parking Fee,,,,,,,,,
ELEC,Atlantic Station Parking Deck QC,264 19th St NW,,Atlanta,GA,30363,,877-455-3833,E,,Public,24 hours daily,,,,,,,2,,eVgo Network,https://www.evgo.com/,GPS,33.793611,-84.396667,2021-02-18,146583,3.12007,2021-02-18 01:05:35 UTC,,,,,,,,,CHADEMO J1772COMBO,US,5.02127,,,,Public,,public,,,,,,,,,,,,,,,,,,,
ELEC,ATLANTIC STN 1682LF 1683RT,261 19th St NW,,Atlanta,GA,30363,,888-758-4389,E,,Public,24 hours daily,,,,,,2,,,ChargePoint Network,http://www.chargepoint.com/,GPS,33.793756,-84.395912,2021-02-18,161756,3.12619,2021-02-18 00:21:44 UTC,,,,,,,,,J1772,US,5.03112,,,,Public,,public,,,,,,,,,,,,,,,,,,,
ELEC,ATLANTIC STN 1684LF 1685RT,261 19th St NW,,Atlanta,GA,30363,,888-758-4389,E,,Public,24 hours daily,,,,,,2,,,ChargePoint Network,http://www.chargepoint.com/,GPS,33.793777,-84.395913,2021-02-18,179895,3.12764,2021-02-18 00:21:44 UTC,,,,,,,,,J1772,US,5.03345,,,,Public,,public,,,,,,,,,,,,,,,,,,,
ELEC,ATLANTIC STN 1686LF 1687RT,261 19th St NW,,Atlanta,GA,30363,,888-758-4389,E,,Public,24 hours daily,,,,,,2,,,ChargePoint Network,http://www.chargepoint.com/,GPS,33.793799,-84.395914,2021-02-18,179896,3.12915,2021-02-18 00:21:44 UTC,,,,,,,,,J1772,US,5.03588,,,,Public,,public,,,,,,,,,,,,,,,,,,,
ELEC,Atlantic Station - Tesla Supercharger,1380 Atlantic Drive NW,,Atlanta,GA,30363,,877-798-3752,E,,Public,24 hours daily; for Tesla use only,,,,,,,10,,Tesla,http://www.teslamotors.com/supercharger,200-9,33.7938,-84.3971,2020-08-10,102134,3.1355,2020-08-27 20:39:12 UTC,P,,,2015-01-01,,,,,TESLA,US,5.0461,,,,Public,,public,,,,,,,,,,$0.28 per kWh; $0.26 per minute above 60 kW and $0.13 per minute at or below 60 kW,,,,,,,,,
ELEC,Stoddard's Range and Guns - Tesla Destination,485 Bishop St NW,,Atlanta,GA,30318,,404-355-4867  877-798-3752,E,,Public,24 hours daily; for customer use only,,,,,,2,,,Tesla Destination,https://www.tesla.com/destination-charging,200-9,33.793399,-84.403837,2020-11-03,113993,3.17175,2020-11-18 00:06:10 UTC,P,,,2017-09-01,,,,,TESLA,US,5.10444,,,,Public,,public,,,REC_SPORTS_FACILITY,,,,,,,Free,,,,,,,,,
ELEC,Stoddards Range and Guns - Tesla Destination,485 Bishop St NW,,Atlanta,GA,30318,,877-798-3752  877-798-3752,E,,Public,24 hours daily; for customer use only; see front desk for access,,,,,,2,,,Tesla Destination,https://www.tesla.com/destination-charging,200-9,33.793399,-84.403837,2020-11-03,169138,3.17175,2020-11-18 00:06:10 UTC,P,,,2020-11-03,,,,,TESLA,US,5.10444,,,,Public,,public,,,,,,,,,,Free,,,,,,,,,
ELEC,DEWBERRY GROUP PEACHTREE 01,1555 Peachtree St NW,,Atlanta,GA,30309,,888-758-4389,E,,Public,24 hours daily,,,,,,2,,,ChargePoint Network,http://www.chargepoint.com/,GPS,33.797832,-84.387945,2021-02-18,173909,3.40296,2021-02-18 00:21:44 UTC,,,,,,,,,J1772,US,5.47653,,,,Public,,public,,,,,,,,,,,,,,,,,,,
ELEC,DEWBERRY GROUP PEACHTREE 02,1555 Peachtree St NW,,Atlanta,GA,30309,,888-758-4389,E,,Public,24 hours daily,,,,,,2,,,ChargePoint Network,http://www.chargepoint.com/,GPS,33.797858,-84.387898,2021-02-18,121021,3.40491,2021-02-18 00:21:44 UTC,,,,,,,,,J1772,US,5.47967,,,,Public,,public,,,,,,,,,,,,,,,,,,,
ELEC,ATLANTA VA MEDI FT. MCPHERSON,1701 Hardee Ave SW,,Atlanta,GA,30310,,888-758-4389,E,,Public,24 hours daily,,,,,,1,,,ChargePoint Network,http://www.chargepoint.com/,GPS,33.708586,-84.429089,2021-02-18,161783,3.50293,2021-02-18 00:21:44 UTC,,,,,,,,,J1772,US,5.63742,,,,Public,,public,,,,,,,,,,,,,,,,,,,
ELEC,VISN 7/ATLANTA VAMC/ FT. MCPHERSON,1701 Hardee Ave,,Atlanta,GA,30310,,,E,,Private - Government only,Accepts fleet card,,,,,,1,,,Non-Networked,,GPS,33.708586,-84.429089,,184311,3.50293,2021-02-11 18:30:11 UTC,FG,19,Department of Veterans Affairs,2021-01-15,,,,,J1772,US,5.63742,,,,Privé - Réservé au gouvernement,,private,GOVERNMENT,VA,FED_GOV,,,,,,,$0.13 per kWh,,,,,,,,,
ELEC,The 500 Apartments,500 Northside Cir NW,,Atlanta,GA,30309,,888-998-2546,E,,Public,MON: 24 hours | TUE: 24 hours | WED: 24 hours | THU: 24 hours | FRI: 24 hours | SAT: 24 hours | SUN: 24 hours,,,,,,3,,,Blink Network,http://www.blinkcharging.com/,GPS,33.799653,-84.402458,2021-02-17,155611,3.5783,2021-02-17 22:55:17 UTC,,,,,,,,,J1772,US,5.75872,,,,Public,,public,,,,,,,,,,Level 2: $0.03 per 30 seconds,,,,,,,,,
ELEC,KWD- Station A,71 Howard St SE,The stations are behind an access-only gate and available for residents only. No public charging allowed.,Atlanta,GA,30317,,800-663-5633,E,,Public,MO: 12:00am-12:00am; TU: 12:00am-12:00am; WE: 12:00am-12:00am; TH: 12:00am-12:00am; FR: 12:00am-12:00am; SA: 12:00am-12:00am; SU: 12:00am-12:00am,,,,,,1,,,SemaCharge Network,https://semaconnect.com/,GPS,33.7507209,-84.3242866,2021-02-18,148733,3.8727,2021-02-18 00:13:37 UTC,,,,,,,,,J1772,US,6.23251,,,,Public,,public,,,,,,,,,,$5.00-$12.00/Hr Variable Parking Fee,,,,,,,,,
ELEC,KWD- Station B,71 Howard Street Southeast,The stations are behind an access-only gate and available for residents only. No public charging allowed.,Atlanta,GA,30317,,800-663-5633,E,,Public,MO: 12:00am-12:00am; TU: 12:00am-12:00am; WE: 12:00am-12:00am; TH: 12:00am-12:00am; FR: 12:00am-12:00am; SA: 12:00am-12:00am; SU: 12:00am-12:00am,,,,,,1,,,SemaCharge Network,https://semaconnect.com/,GPS,33.7507209,-84.3242866,2021-02-18,148734,3.8727,2021-02-18 00:13:37 UTC,,,,,,,,,J1772,US,6.23251,,,,Public,,public,,,,,,,,,,$5.00-$12.00/Hr Variable Parking Fee,,,,,,,,,
ELEC,PIVET PUBLIC DC1,2244 Metropolitan Pkwy SW,,Atlanta,GA,30315,,888-758-4389,E,,Public,24 hours daily,,,,,,,1,,ChargePoint Network,http://www.chargepoint.com/,GPS,33.692389,-84.40676,2021-02-18,175802,3.96896,2021-02-18 00:21:44 UTC,,,,,,,,,CHADEMO J1772COMBO,US,6.38742,,,,Public,,public,,,,,,,,,,,,,,,,,,,
ELEC,PIVET PUBLIC DC2,2244 Metropolitan Pkwy SW,,Atlanta,GA,30315,,888-758-4389,E,,Public,24 hours daily,,,,,,,1,,ChargePoint Network,http://www.chargepoint.com/,GPS,33.69237,-84.406757,2021-02-18,175805,3.9702,2021-02-18 00:21:44 UTC,,,,,,,,,CHADEMO J1772COMBO,US,6.38942,,,,Public,,public,,,,,,,,,,,,,,,,,,,
ELEC,PIVET PUBLIC DC3,2244 Metropolitan Pkwy SW,,Atlanta,GA,30315,,888-758-4389,E,,Public,24 hours daily,,,,,,,1,,ChargePoint Network,http://www.chargepoint.com/,GPS,33.692351,-84.40676,2021-02-18,175804,3.97151,2021-02-18 00:21:44 UTC,,,,,,,,,CHADEMO J1772COMBO,US,6.39153,,,,Public,,public,,,,,,,,,,,,,,,,,,,
ELEC,PIVET PUBLIC DC4,2244 Metropolitan Pkwy SW,,Atlanta,GA,30315,,888-758-4389,E,,Public,24 hours daily,,,,,,,1,,ChargePoint Network,http://www.chargepoint.com/,GPS,33.692326,-84.406758,2021-02-18,158550,3.97317,2021-02-18 00:21:44 UTC,,,,,,,,,CHADEMO J1772COMBO,US,6.3942,,,,Public,,public,,,,,,,,,,,,,,,,,,,
ELEC,PIVET PUBLIC DC5,2244 Metropolitan Pkwy SW,,Atlanta,GA,30315,,888-758-4389,E,,Public,24 hours daily,,,,,,,1,,ChargePoint Network,http://www.chargepoint.com/,GPS,33.692306,-84.406761,2021-02-18,175806,3.97455,2021-02-18 00:21:44 UTC,,,,,,,,,CHADEMO J1772COMBO,US,6.39642,,,,Public,,public,,,,,,,,,,,,,,,,,,,
ELEC,PIVET PUBLIC DC6,2244 Metropolitan Pkwy SW,,Atlanta,GA,30315,,888-758-4389,E,,Public,24 hours daily,,,,,,,1,,ChargePoint Network,http://www.chargepoint.com/,GPS,33.692279,-84.406759,2021-02-18,175803,3.97634,2021-02-18 00:21:44 UTC,,,,,,,,,CHADEMO J1772COMBO,US,6.3993,,,,Public,,public,,,,,,,,,,,,,,,,,,,
ELEC,120EVCHARGER 120 OTTLEY DRIV,120 Ottley Dr NE,,Atlanta,GA,30324,,888-758-4389,E,,Public,24 hours daily,,,,,,2,,,ChargePoint Network,http://www.chargepoint.com/,GPS,33.806679,-84.384801,2021-02-18,120979,4.02506,2021-02-18 00:21:44 UTC,,,,,,,,,J1772,US,6.47771,,,,Public,,public,,,,,,,,,,,,,,,,,,,
ELEC,AAA - PIEDMONT PIEDMONT EV2,1968 Peachtree Rd,,Atlanta,GA,30309,,888-758-4389,E,,Public,24 hours daily,,,,,,2,,,ChargePoint Network,http://www.chargepoint.com/,GPS,33.808748,-84.39444,2021-02-18,164048,4.15259,2021-02-18 00:21:44 UTC,,,,,,,,,J1772,US,6.68295,,,,Public,,public,,,,,,,,,,,,,,,,,,,
ELEC,AAA - PIEDMONT PIEDMONT EV1,1968 Peachtree Rd NW,,Atlanta,GA,30309,,888-758-4389,E,,Public,24 hours daily,,,,,,2,,,ChargePoint Network,http://www.chargepoint.com/,GPS,33.808757,-84.394504,2021-02-18,164047,4.15336,2021-02-18 00:21:44 UTC,,,,,,,,,J1772,US,6.68418,,,,Public,,public,,,,,,,,,,,,,,,,,,,
ELEC,AAA - PIEDMONT PIEDMONT EV3,1968 Peachtree Rd NW,,Atlanta,GA,30309,,888-758-4389,E,,Public,24 hours daily,,,,,,2,,,ChargePoint Network,http://www.chargepoint.com/,GPS,33.808811,-84.394386,2021-02-18,180733,4.1568,2021-02-18 00:21:44 UTC,,,,,,,,,J1772,US,6.68972,,,,Public,,public,,,,,,,,,,,,,,,,,,,
ELEC,C180 CHRIS 180 CCC,1017 Fayetteville Rd SE,,Atlanta,GA,30316,,888-758-4389,E,,Public,24 hours daily,,,,,,1,,,ChargePoint Network,http://www.chargepoint.com/,GPS,33.726723,-84.322023,2021-02-18,105027,4.27409,2021-02-18 00:21:44 UTC,,,,,,,,,J1772,US,6.87848,,,,Public,,public,,,,,,,,,,,,,,,,,,,
ELEC,Morningside Atlanta by Windsor,1845 Piedmont Ave,,Atlanta,GA,30324,,800-663-5633,E,,Public,MO: Not Specified; TU: Not Specified; WE: Not Specified; TH: Not Specified; FR: Not Specified; SA: Not Specified; SU: Not Specified,,,,,,2,,,SemaCharge Network,https://semaconnect.com/,GPS,33.8065737,-84.3659703,2021-02-18,148715,4.26071,2021-02-18 00:13:37 UTC,,,,,,,,,J1772,US,6.85695,,,,Public,,public,,,,,,,,,,FREE,,,,,,,,,
ELEC,THE WORKS CHATTAHOOCHEE 1,1235 Chattahoochee Ave NW,,Atlanta,GA,30318,,888-758-4389,E,,Public,24 hours daily,,,,,,2,,,ChargePoint Network,http://www.chargepoint.com/,GPS,33.8031,-84.42836,2021-02-18,155222,4.31705,2021-02-18 00:21:44 UTC,,,,,,,,,J1772,US,6.94762,,,,Public,,public,,,,,,,,,,,,,,,,,,,
ELEC,C180 CETEC,1030 Fayetteville Rd SE,,Atlanta,GA,30316,,888-758-4389,E,,Public,24 hours daily,,,,,,2,,,ChargePoint Network,http://www.chargepoint.com/,GPS,33.726998,-84.320785,2021-02-18,143593,4.33435,2021-02-18 00:21:44 UTC,,,,,,,,,J1772,US,6.97546,,,,Public,,public,,,,,,,,,,,,,,,,,,,
ELEC,THE WORKS CHATTAHOOCHEE 2,1235 Chattahoochee Ave NW,,Atlanta,GA,30318,,888-758-4389,E,,Public,24 hours daily,,,,,,2,,,ChargePoint Network,http://www.chargepoint.com/,GPS,33.80337,-84.42866,2021-02-18,175488,4.34174,2021-02-18 00:21:44 UTC,,,,,,,,,J1772,US,6.98735,,,,Public,,public,,,,,,,,,,,,,,,,,,,
ELEC,MARTA HE HOLMES L2 1,Hamilton E. Holmes Station Bus Bay,,Atlanta,GA,30311,,888-758-4389,E,,Public,24 hours daily,,,,,,2,,,ChargePoint Network,http://www.chargepoint.com/,GPS,33.753767,-84.469442,2021-02-18,152382,4.50157,2021-02-18 00:21:44 UTC,,,,,,,,,J1772,US,7.24457,,,,Public,,public,,,,,,,,,,,,,,,,,,,
ELEC,MARTA HE HOLMES L2 2,Hamilton E. Holmes Station Bus Bay,,Atlanta,GA,30311,,888-758-4389,E,,Public,24 hours daily,,,,,,2,,,ChargePoint Network,http://www.chargepoint.com/,GPS,33.753721,-84.469455,2021-02-18,174946,4.50206,2021-02-18 00:21:44 UTC,,,,,,,,,J1772,US,7.24536,,,,Public,,public,,,,,,,,,,,,,,,,,,,
ELEC,VENUE BROOKWOOD VENUE EV1,2140 Peachtree Rd NW,,Atlanta,GA,30309,,888-758-4389,E,,Public,24 hours daily,,,,,,2,,,ChargePoint Network,http://www.chargepoint.com/,GPS,33.813539,-84.393912,2021-02-18,82695,4.48149,2021-02-18 00:21:44 UTC,,,,,,,,,J1772,US,7.21226,,,,Public,,public,,,,,,,,,,,,,,,,,,,
ELEC,MARTA HE HOLMES L2 3,Hamilton E. Holmes Station Bus Bay,,Atlanta,GA,30311,,888-758-4389,E,,Public,24 hours daily,,,,,,2,,,ChargePoint Network,http://www.chargepoint.com/,GPS,33.753636,-84.469482,2021-02-18,174945,4.50316,2021-02-18 00:21:44 UTC,,,,,,,,,J1772,US,7.24713,,,,Public,,public,,,,,,,,,,,,,,,,,,,
ELEC,EMORY UNIV CPE250,201 Dowman Dr,,Atlanta,GA,30307,,888-758-4389,E,,Public,24 hours daily,,,,,,,1,,ChargePoint Network,http://www.chargepoint.com/,GPS,33.789692,-84.327126,2021-02-18,121097,4.66607,2021-02-18 00:21:44 UTC,,,,,,,,,CHADEMO J1772COMBO,US,7.50931,,,,Public,,public,,,,,,,,,,,,,,,,,,,
ELEC,EMORY UNIV PEAVINE EV2,29 Eagle Row,,Atlanta,GA,30306,,888-758-4389,E,,Public,24 hours daily,,,,,,2,,,ChargePoint Network,http://www.chargepoint.com/,GPS,33.79343,-84.328259,2021-02-18,179878,4.77704,2021-02-18 00:21:44 UTC,,,,,,,,,J1772,US,7.6879,,,,Public,,public,,,,,,,,,,,,,,,,,,,
ELEC,EMORY UNIV PEAVINE EV1,29 Eagle Row,,Atlanta,GA,30306,,888-758-4389,E,,Public,24 hours daily,,,,,,2,,,ChargePoint Network,http://www.chargepoint.com/,GPS,33.793385,-84.328212,2021-02-18,161713,4.7771,2021-02-18 00:21:44 UTC,,,,,,,,,J1772,US,7.688,,,,Public,,public,,,,,,,,,,,,,,,,,,,
ELEC,"Walmart 6998 (East Point, GA)",844 CLEVELAND AVENUE,,East Point,GA,30344,,833-632-2778,E,,Public,24 hours daily,,,,,,,8,,Electrify America,https://www.electrifyamerica.com/,GPS,33.679748,-84.415717,2021-02-18,166910,4.94254,2021-02-18 01:09:43 UTC,,,,,,,,,CHADEMO J1772COMBO,US,7.95425,,,,Public,,public,,,,,,,,,,,,,,,,,,,
ELEC,Kroger Store #655 - Atlanta - Briarcliff Rd NE,1799 Briarcliff Rd NE,,Atlanta,GA,30306,,888-998-2546,E,,Public,MON: 24 hours | TUE: 24 hours | WED: 24 hours | THU: 24 hours | FRI: 24 hours | SAT: 24 hours | SUN: 24 hours,,,,,,2,,,Blink Network,http://www.blinkcharging.com/,GPS,33.80437,-84.336707,2021-02-17,95418,4.97479,2021-02-17 22:55:17 UTC,,,,,,,,,J1772,US,8.00615,,,,Public,,public,,,,,,,,,,Level 2: $0.03 per 30 seconds,,,,,,,,,
ELEC,HAYNES HOUSE SINGLE CHARGER,2420 Peachtree Rd,,Atlanta,GA,30305,,888-758-4389,E,,Public,24 hours daily,,,,,,1,,,ChargePoint Network,http://www.chargepoint.com/,GPS,33.821009,-84.388902,2021-02-18,161744,4.99644,2021-02-18 00:21:44 UTC,,,,,,,,,J1772,US,8.04099,,,,Public,,public,,,,,,,,,,,,,,,,,,,
